# Time (s),Altitude (m),Vertical velocity (m/s),Total velocity (m/s),Vertical acceleration (m/s²),Total acceleration (m/s²),Position East of launch (m),Position North of launch (m),Lateral distance (m),Lateral direction (°),Lateral velocity (m/s),Lateral acceleration (m/s²),Roll rate (°/s),Pitch rate (°/s),Yaw rate (°/s),Vertical orientation (zenith) (°),Lateral orientation (azimuth) (°)
0,0,0,0,0,0,0,0,0,0,0,0,0,0,0,85,90
0.002,0,0,0,0,0,0,0,0,0,0,0,0,0,0,85,90
0.004,0,0,0,0,0,0,0,0,0,0,0,0,0,0,85,90
0.006,0,0,0,0,0,0,0,0,0,0,0,0,0,0,85,90
0.008,0,0,0,0,0,0,0,0,0,0,0,0,0,0,85,90
0.01,0,0,0,0,0,0,0,0,0,0,0,0,0,0,85,90
0.012,0,0,0,0,0,0,0,0,0,0,0,0,0,0,85,90
0.014,0,0,0,0,0,0,0,0,0,0,0,0,0,0,85,90
0.016,0,0,0,0,0,0,0,0,0,0,0,0,0,0,85,90
0.018,0,0,0,0,0,0,0,0,0,0,0,0,0,0,85,90
0.02,0,0,0,0,0,0,0,0,0,0,0,0,0,0,85,90
0.022,0,0,0,0,0,0,0,0,0,0,0,0,0,0,85,90
0.024,1.295463068672691e-7,3.042960918166875e-4,3.043097413552081e-4,0.524249618444382,0.525035452192821,-6.690895405550577e-9,0,6.690895405550581e-9,269.9999979987167,2.88221941631434e-6,0.028715215831319,0,0,0,85,90
0.026,2.35610219082739e-6,0.002206994802225,0.002210687879964,1.378454648789332,1.381801751805786,1.014529748244909e-7,0,1.01452974824491e-7,89.99999803588305,1.277295798712068e-4,0.096119001891493,0,0,0,85,90
0.028,1.009648779451285e-5,0.00581813693627,0.005831013866827,2.232693053333267,2.23866745065468,5.94046334780549e-7,0,5.940463347805508e-7,89.99999556331002,3.873051845060002e-4,0.163443214047262,0,0,0,85,90
0.03,2.676765676024247e-5,0.011137789313162,0.011165169597805,3.086964904582728,3.095572388758532,1.740385460040967e-6,0,1.740385460040978e-6,89.999993421816,7.814482474109123e-4,0.230686132913856,0,0,0,85,90
0.031,3.952011959178933e-5,0.014438327765504,0.014474944153641,3.514113398064123,3.524036749125828,2.642776033725879e-6,0,2.642776033725902e-6,89.99999238201426,0.001028931283864,0.264276436209436,0,0,0,85,90
0.0325,6.563187018598719e-5,0.020711273330893,0.020766148119021,4.849847948190595,4.864351675899302,4.525144498805055e-6,0,4.525144498805113e-6,89.99999087853078,0.001508663220925,0.375355972719,0,0,0,85,90
0.0345,1.179415831632837e-4,0.032192205035138,0.032282094913185,6.631144114987005,6.651765355342901,8.391874181379518e-6,0,8.39187418137967e-6,89.99998906792761,0.002407402533757,0.523364183731829,0,0,0,85,90
0.0365,1.967759933746895e-4,0.047236091339645,0.047373231042408,8.412802605795234,8.439539566867793,1.435202078808876e-5,0,1.435202078808911e-5,89.9999873810463,0.003602040303781,0.671252870870549,0,0,0,85,90
0.0385,3.092617349005778e-4,0.065843657241262,0.066040283140698,10.194823771633791,10.227668929152202,2.299713558755853e-5,0,2.299713558755925e-5,89.99998571647303,0.005092327404905,0.819011593126687,0,0,0,85,90
0.0405,4.625268925229689e-4,0.088015628446291,0.088283960150609,11.977207968029619,12.016150792306359,3.491824925990426e-5,0,3.491824925990561e-5,89.99998402879358,0.00687799164573,0.966627722555348,0,0,0,85,90
0.0425,6.637010031412662e-4,0.113752731360953,0.114104963939964,13.75995553592653,13.80498333600354,5.070582137767021e-5,0,5.070582137767263e-5,89.99998230434761,0.008958733373826,1.114086422437798,0,0,0,85,90
0.0445,9.199150571286311e-4,0.143055693040532,0.143503992550069,15.543066779511546,15.594164958966898,7.094968105172368e-5,0,7.094968105172778e-5,89.99998054260647,0.011334221036461,1.261370625595675,0,0,0,85,90
0.0465,0.00123830149954,0.175925241091435,0.176481740974329,17.326541941383855,17.38369402835883,9.623895865539954e-5,0,9.623895865540615e-5,89.99997874750085,0.014004086698207,1.408461012972886,0,0,0,85,90
0.0485,0.001625994231076,0.212362103521313,0.21303890107812,19.110381175525987,19.173568752942586,1.271620085412656e-4,0,1.271620085412759e-4,89.99997692393536,0.016967921516092,1.555335992613293,0,0,0,85,90
0.0505,0.002090128608683,0.252366947183679,0.25317615615073,20.894400497321918,20.963774881194478,1.643063226664658e-4,0,1.643063226664814e-4,89.99997507653104,0.020225973708313,1.704078967335205,0,0,0,85,90
0.0525,0.002637840463053,0.295939516617307,0.296894112687415,22.678228792726316,22.75428790003321,2.082696878759049e-4,0,2.082696878759276e-4,89.9999732105653,0.023789002769397,1.858912763514454,0,0,0,85,90
0.0545,0.003276265352195,0.343080101554982,0.344193423552794,24.462415886269728,24.545142300185084,2.596686250685392e-4,0,2.596686250685717e-4,89.9999713314025,0.027661466591917,2.013509260846226,0,0,0,85,90
0.0565,0.004012540024208,0.393789418811694,0.395074770513901,26.24696095110686,26.336334066214036,3.191215109479541e-4,0,3.191215109479995e-4,89.9999694422399,0.031842863071013,2.167840602603816,0,0,0,85,90
0.0585,0.004853802658978,0.448068183262844,0.449538827045947,28.031862868309986,28.127858928851882,3.872456608975887e-4,0,3.872456608976508e-4,89.99996754492112,0.036332632293581,2.321876838606291,0,0,0,85,90
0.0605,0.005807192863691,0.505917107223301,0.507586257511316,29.817120190279446,29.919712267307077,4.646572091829518e-4,0,4.646572091830353e-4,89.99996564059357,0.041130152359921,2.475585934051853,0,0,0,85,90
0.0625,0.006879851667032,0.567336899754665,0.569217716312959,31.60273110565866,31.711889034821226,5.519709808159451e-4,0,5.519709808160557e-4,89.99996373003316,0.046234735224787,2.628933780118731,0,0,0,85,90
0.0645,0.008078921511926,0.632328265904461,0.634433846978165,33.38869340648052,33.5043837002038,6.498003551237598e-4,0,6.498003551239041e-4,89.9999618138086,0.051645622561561,2.781884206527425,0,0,0,85,90
0.0665,0.009411546246697,0.700891905882473,0.703235281161862,35.17500445827008,35.2971902013247,7.587571210726567e-4,0,7.587571210728426e-4,89.99995989236656,0.057361981653679,2.934398996246487,0,0,0,85,90
0.0685,0.010884871114523,0.77302851418083,0.775622637573244,36.96166117381551,37.09030190836913,8.794513244055096e-4,0,8.794513244057463e-4,89.99995796607608,0.063382901317741,3.086437902506625,0,0,0,85,90
0.0705,0.01250604274108,0.848738778645868,0.851596520835996,38.74865999129005,38.88371159570535,0.001012491106661,0,0.001012491106662,89.99995603525304,0.069707387863077,3.237958668264344,0,0,0,85,90
0.0725,0.014282209120283,0.928023379511138,0.931157520295422,40.53599685736333,40.677411421818995,0.001158482536154,0,0.001158482536154,89.9999541001732,0.076334361092793,3.388917048226549,0,0,0,85,90
0.0745,0.016220519598079,1.0108829884021,1.014306208787225,42.3236672158801,42.471392917107856,0.001318029431,0,0.001318029431,89.9999521610805,0.083262650351489,3.539266833511656,0,0,0,85,90
0.0765,0.018328124854212,1.097318267324171,1.101043141383483,44.11166600260768,44.265646979507096,0.001491733174291,0,0.001491733174292,89.9999502181915,0.090490990624966,3.688959878981035,0,0,0,85,90
0.0785,0.020612176881971,1.187329867646692,1.191368854131771,45.88455184793906,46.059823381747485,0.001680192521525,0,0.001680192521526,89.99994827169901,0.098018018697264,4.014378117662155,0,0,0,85,90
0.0805,0.023079797628278,1.280886852582578,1.285282166527122,47.6724736223295,47.854574726856306,0.001884361593533,0,0.001884361593534,89.9999467578163,0.106203194272814,4.170801004192473,0,0,0,85,90
0.0825,0.025738108348224,1.378019920439897,1.382785332146117,49.46063286025711,49.64956444257444,0.002105213876482,0,0.002105213876483,89.99994597150003,0.114701236563819,4.327244666090294,0,0,0,85,90
0.0845,0.028594261674839,1.478729534486648,1.483878801074583,51.249017803325735,51.444780725590554,0.002343375144678,0,0.002343375144679,89.99994573827846,0.123512186100977,4.483708074629254,0,0,0,85,90
0.0865,0.031655411143781,1.583016133889525,1.588563001652391,53.037616114602464,53.24021119184667,0.002599471251393,0,0.002599471251395,89.99994592377543,0.132636081306394,4.640190150467579,0,0,0,85,90
0.0885,0.034928711144001,1.690880132594931,1.696838338885457,54.82641491780823,55.03584291587841,0.002874128124557,0,0.002874128124558,89.99994642423505,0.142072958395688,4.796689767076824,0,0,0,85,90
0.0905,0.038421316866252,1.802321918294828,1.80870519304253,56.61540084287631,56.83166247654759,0.003167971762244,0,0.003167971762246,89.99994715936657,0.151822851287512,4.95320575472772,0,0,0,85,90
0.092,0.041188995256008,1.888251398197691,1.894962480786522,57.957254791398164,58.178642089159695,0.003401322418752,0,0.003401322418754,89.99994782671885,0.159340706641689,5.07060276333088,0,0,0,85,90
0.094,0.045083456315166,2.007231647220352,2.014396681914245,61.02321358139473,61.256312343648645,0.003730323842796,0,0.003730323842798,89.99994883227824,0.16975012961466,5.338839400293239,0,0,0,85,90
0.096,0.049222010663383,2.132345121996861,2.139987573428276,64.0904765916277,64.33529180028343,0.004080680662476,0,0.004080680662478,89.9999499382061,0.180696140311939,5.607190141741024,0,0,0,85,90
0.098,0.053616927344589,2.263594406842142,2.271737747454764,67.15901950089324,67.41555604495714,0.004453466280047,0,0.004453466280049,89.99995111668028,0.192178964831784,5.875652859844617,0,0,0,85,90
0.1,0.05828048052194,2.400982036298047,2.409649746067623,70.22881687962531,70.49707955096697,0.004849754545641,0,0.004849754545642,89.99995234516811,0.204198824917874,6.144225329805271,0,0,0,85,90
0.102,0.06322494938109,2.544510500638883,2.553726066889511,73.29985025142828,73.57984377134044,0.005270619748798,0,0.0052706197488,89.99995360540677,0.21675593844098,6.412905935147825,0,0,0,85,90
0.104,0.068462618042221,2.694182239278398,2.703969156526378,76.3720866230799,76.66381558682652,0.005717136610777,0,0.005717136610779,89.9999548826102,0.229850518822151,6.681691789339358,0,0,0,85,90
0.106,0.074005775441603,2.849999630677619,2.860381400472711,79.44549836024008,79.74896725752647,0.006190380274187,0,0.006190380274189,89.99995616484115,0.243482774149762,6.950580474688391,0,0,0,85,90
0.108,0.079866715216803,3.011964997511555,3.022965128321161,82.52005733977781,82.83527055288347,0.00669142629295,0,0.006691426292952,89.99995744250748,0.257652907631548,7.219569530739776,0,0,0,85,90
0.11,0.086057735594256,3.180080605863779,3.191722612967789,85.59573512224726,85.92269692481764,0.00722135062246,5.204298616899359e-9,0.007221350622462,89.99995870795344,0.27236111752413,7.488656469364406,0,0,0,85,90
0.112,0.092591139275558,3.354348664766533,3.366656070157228,88.67250312429304,89.0112176807898,0.007781229609637,5.438417461311677e-9,0.007781229609639,89.99995995512491,0.287607597092788,7.757838789842719,0,0,0,85,90
0.114,0.099479233323191,3.534771326082327,3.547767658365679,91.7503327870735,92.10080415286819,0.00837213998293,5.672536305723995e-9,0.008372139982932,89.99996117929344,0.303392534601096,8.027113993599826,0,0,0,85,90
0.116,0.106734329046345,3.721350684715266,3.735059479011445,94.82919573699814,95.19142785907977,0.008995158842326,5.906655150136312e-9,0.008995158842328,89.9999623768277,0.319716113329415,8.296479598268217,0,0,0,85,90
0.118,0.114368741887467,3.914088779133351,3.928533576975299,97.90906393542272,98.28306065367725,0.009651363649426,6.14077399454863e-9,0.009651363649428,89.99996354500304,0.336578511620585,8.565933150784378,0,0,0,85,90
0.12,0.122394791310157,4.112987592176666,4.128191941406328,100.98990981440977,101.37567486341811,0.010341832217635,6.374892838960948e-9,0.010341832217637,89.99996468184294,0.353979902950637,8.835472239266306,0,0,0,85,90
0.122,0.130824800688934,4.318049052121153,4.334036506783473,104.07170639621258,104.46924340750505,0.01106764270252,6.609011683373265e-9,0.011067642702522,89.99996578598655,0.371920456021854,9.105094503466995,0,0,0,85,90
0.124,0.139671097201359,4.529275033963582,4.546069154198656,107.15442739475348,107.56373989945186,0.011829873592371,6.843130527785583e-9,0.011829873592373,89.99996685657754,0.390400334875198,9.37479764365264,0,0,0,85,90
0.126,0.14894601172292,4.746667360890506,4.764291712824469,110.23804729799576,110.65913872976995,0.012629603699004,7.077249372197901e-9,0.012629603699006,89.9999678931715,0.409419699018824,9.644579427809246,0,0,0,85,90
0.128,0.158661878725,4.970227805892408,4.988705961527705,113.32254143073884,113.75541512900351,0.013467912148836,7.311368216610219e-9,0.013467912148838,89.99996889565831,0.428978703569301,9.914437697136492,0,0,0,85,90
0.13,0.168831036176195,5.199958093483912,5.219313630589571,116.40788599795017,116.85254521122685,0.014345878374251,7.545487061022535e-9,0.014345878374253,89.99996986419711,0.449077499402107,10.184370369838781,0,0,0,85,90
0.132,0.179465825447142,5.435859901491688,5.456116403494186,119.49405810928117,119.95050599865394,0.015264582105271,7.779605905434852e-9,0.015264582105273,89.99997079916228,0.469716233308056,10.454375443270111,0,0,0,85,90
0.134,0.190578591218957,5.677934862873464,5.699115918748668,122.58103578586255,123.04927542845981,0.016225103361548,8.013724749847169e-9,0.01622510336155,89.99997170109823,0.490895048152436,10.724450994528576,0,0,0,85,90
0.136,0.202181681395318,5.926184567534087,5.948313771700671,125.66879795084056,126.14883234328052,0.017228522444673,8.247843594259486e-9,0.017228522444675,89.99997257068158,0.512614083033899,10.994595179628417,0,0,0,85,90
0.138,0.214287447018152,6.180610564107832,6.203711516322428,128.75732440538252,129.24915646712716,0.018275919930798,8.481962438671803e-9,0.0182759199308,89.99997340869015,0.534873473440387,11.264806231400755,0,0,0,85,90
0.139,0.220532693660708,6.310140144961188,6.333735822748481,130.30186816040367,130.79960012837108,0.018816448328357,8.599021860877962e-9,0.018816448328359,89.99997381611809,0.54620584335632,11.399936300284866,0,0,0,85,90
0.1405,0.230145127868873,6.506861764848642,6.531208805927633,131.99373054805204,132.49792515548597,0.019648637523579,8.774610994187201e-9,0.019648637523581,89.99997441307696,0.563416754966927,11.54795507945,0,0,0,85,90
0.1425,0.243424343205215,6.773105837474242,6.798469785099989,134.25052852189918,134.76334373096137,0.020798698556853,9.008729838599518e-9,0.020798698556855,89.99997518295693,0.58671009305264,11.7453993180299,0,0,0,85,90
0.1445,0.257240561027106,7.043864621953135,7.070262727804229,136.5084411609177,137.029881229448,0.021995741219898,9.242848683011835e-9,0.0219957412199,89.9999759236929,0.610398417244601,11.942941077175922,0,0,0,85,90
0.1465,0.27160281298268,7.319140340288634,7.346589864019414,138.7674611984394,139.2975303565202,0.023240555679539,9.476967527424151e-9,0.023240555679541,89.99997663609038,0.634481921942912,12.14057972113698,0,0,0,85,90
0.1485,0.286520135149771,7.598935200289533,7.627453409529226,141.0275816951417,141.5662841463483,0.024533932490148,9.711086371836468e-9,0.02453393249015,89.99997732103225,0.658960800305814,12.338314642801011,0,0,0,85,90
0.1505,0.302001568008137,7.883251395189335,7.912855565533031,143.28879306851456,143.83613297981861,0.025876662591218,9.945205216248785e-9,0.02587666259122,89.99997797945221,0.683835244216373,12.536145003807022,0,0,0,85,90
0.1525,0.318056156398027,8.172091092025001,8.202798506974526,145.55108507851313,146.10706657777098,0.027269537303733,1.01793240606611e-8,0.027269537303735,89.99997861231378,0.709105443265758,12.734069908267172,0,0,0,85,90
0.1545,0.334692949489726,8.465456458594751,8.497284409597592,147.81446188109555,148.37908911203866,0.028713348327507,1.041344290507342e-8,0.028713348327509,89.9999792205938,0.734771587111738,12.932089719780688,0,0,0,85,90
0.1565,0.351921000788608,8.76334965897316,8.79631544544005,150.07891797844022,150.65219506379924,0.030208887741627,1.064756174948574e-8,0.030208887741629,89.99997980526936,0.760833865086305,13.130203957350501,0,0,0,85,90
0.1585,0.369749368117245,9.06577284629817,9.099893775589473,152.3444479231652,152.92637896486264,0.031756948002884,1.088168059389805e-8,0.031756948002886,89.99998036730824,0.78729246556462,13.32841214439245,0,0,0,85,90
0.1605,0.388187113593598,9.372728162822103,9.408021550231247,154.6110462692376,155.20163534839304,0.033358321943866,1.111579943831037e-8,0.033358321943868,89.99998090766091,0.814147575969476,13.526713804440394,0,0,0,85,90
0.1625,0.407243303609217,9.684217739869139,9.720700908603133,156.87870752751965,157.47795870428507,0.035013802771053,1.134991828272269e-8,0.035013802771055,89.9999814272554,0.841399382767576,13.725108457257006,0,0,0,85,90
0.1645,0.426927008807278,10.000243697708399,10.03793397886548,159.14742612578866,159.75534343903107,0.036724184062895,1.1584037127135e-8,0.036724184062896,89.99998192699296,0.869048071458433,13.92359561533597,0,0,0,85,90
0.1665,0.447247304060271,10.32080814535136,10.35972287789577,161.41719637301338,162.0337838398609,0.038490259767856,1.181815597154732e-8,0.038490259767858,89.99998240774515,0.897093826556641,14.122174780776566,0,0,0,85,90
0.1685,0.468213268447236,10.645912893863356,10.686069423503227,163.6871531962009,164.31241152934342,0.040312824202428,1.205227481595964e-8,0.04031282420243,89.9999828703522,0.925536806509887,14.320770269498796,0,0,0,85,90
0.1705,0.489833981682658,10.975556982263331,11.016972650876628,165.95707536093784,166.59100442798567,0.042192671738697,1.228639366037195e-8,0.042192671738699,89.99998331562156,0.954376927243222,14.519362725999502,0,0,0,85,90
0.1725,0.51211852349726,11.30974175091174,11.352433905349516,168.22783113091336,168.87043411610313,0.044130596750169,1.252051250478427e-8,0.044130596750171,89.99998374432761,0.983614306022991,14.71802811350844,0,0,0,85,90
0.1745,0.535075976909458,11.64846885306522,11.692454846358428,170.4994065218062,171.15068655595667,0.046127393897986,1.275463134919659e-8,0.046127393897988,89.9999841572115,1.013249087490408,14.916765208556034,0,0,0,85,90
0.1765,0.558715428216085,11.991739913820846,12.037037105083318,172.77178735452085,173.43174751428887,0.048183858130114,1.29887501936089e-8,0.048183858130115,89.9999845549818,1.043281413823044,15.115572770632165,0,0,0,85,90
0.1785,0.583045966935669,12.339556529704186,12.386182284033039,175.04495923315255,175.71360254020504,0.050300784676381,1.322286903802122e-8,0.050300784676382,89.99998493831471,1.073711424698787,15.314449540258368,0,0,0,85,90
0.1805,0.608076685750844,12.691920268215442,12.739891956588874,177.31890752509318,177.99623694520287,0.052478969043438,1.345698788243354e-8,0.05247896904344,89.99998530785521,1.104539257256134,15.51339423724731,0,0,0,85,90
0.1825,0.633816680449812,13.04883266733782,13.09816766651024,179.59361734313563,180.2796357852085,0.05471920700964,1.369110672684586e-8,0.054719207009642,89.99998566421785,1.135765046051182,15.712405559137142,0,0,0,85,90
0.1845,0.660275049866787,13.410295235011999,13.461010927406448,181.8690735294315,182.56378384447302,0.057022294619831,1.392522557125817e-8,0.057022294619833,89.99998600798762,1.167388923011645,15.911482179787962,0,0,0,85,90
0.1865,0.687460895821363,13.77630944858024,13.828423222178062,184.14526064115856,184.84866562118515,0.059389028180043,1.415934441567049e-8,0.059389028180045,89.9999863397213,1.199411017388222,16.1106227481279,0,0,0,85,90
0.1885,0.715383323056737,14.146876754203431,14.200406002431137,186.4221629377586,187.1342653146603,0.061820204252091,1.439346326008281e-8,0.061820204252092,89.9999866599487,1.231831455703598,16.309825887036542,0,0,0,85,90
0.1905,0.744051439176739,14.521998566254052,14.576960687867377,188.69976436961178,189.42056681397162,0.06431661964806,1.462758210449512e-8,0.064316619648062,89.99998696917338,1.264650361699329,16.509090192354105,0,0,0,85,90
0.192,0.766047364969097,14.806329652721997,14.862377850446991,190.40841441646543,191.13574362642268,0.066232223971768,1.480317123780435e-8,0.066232223971769,89.99998719416043,1.289526108453283,16.65857770138684,0,0,0,85,90
0.194,0.796037913184176,15.182754296915089,15.24024034720388,186.01561824434845,186.72616768656718,0.06884433718434,1.503729008221667e-8,0.068844337184341,89.99998748519786,1.322458997491958,16.27425783514653,0,0,0,85,90
0.196,0.826772522657822,15.550389697012179,15.60928002837222,181.61917924624998,182.31293500572676,0.071521547322005,1.527140892662899e-8,0.071521547322006,89.99998776610252,1.354622927311271,15.889619262929644,0,0,0,85,90
0.198,0.858233607651443,15.909228620023333,15.96948963315181,177.21914965102113,177.8960980122582,0.074262315831997,1.550552777104131e-8,0.074262315831999,89.99998803698364,1.386017265106599,15.504666554168558,0,0,0,85,90
0.2,0.890403568063226,16.259263934884288,16.320862003079487,172.81557918799712,173.47570662545473,0.077065102904931,1.573964661545362e-8,0.077065102904932,89.99998829800663,1.41664138699066,15.119404059616354,0,0,0,85,90
0.202,0.923264790037505,16.600489229653384,16.663390701580408,168.40915013191693,169.05244572623405,0.079928367528114,1.597376545986594e-8,0.079928367528115,89.99998854938026,1.446494731991247,14.733891470578099,0,0,0,85,90
0.204,0.956799647488346,16.932898287641457,16.997069488094215,163.9993496621135,164.6258005350374,0.082850567618845,1.620788430427826e-8,0.082850567618846,89.99998879134577,1.475576756218535,14.348083921059006,0,0,0,85,90
0.206,0.99099050122799,17.256484408777624,17.321891636846352,159.58622015866607,160.19581359382906,0.085830159948161,1.644200314869058e-8,0.085830159948163,89.99998902416833,1.503886873492276,13.961985118835564,0,0,0,85,90
0.208,1.025819698753786,17.5712409961759,17.637850525653363,155.79655185783378,155.92846175054305,0.088865600122198,1.66761219931029e-8,0.0888656001222,89.99998924812971,1.531424506659732,6.412457648973658,0,0,0,85,90
0.209,1.043468470069984,17.72593364299038,17.792508281267775,153.58859261874522,153.7140097235089,0.090400196656847,1.684660867916457e-8,0.090400196656848,89.99998932259427,1.53773451001273,6.208140033223041,0,0.835797789680295,-5.680661696529992e-6,84.999582801477,89.9999999765301
0.2105,1.070228674295738,17.95334961937922,18.019858172872272,149.6324384152529,149.7468608987593,0.092713648586611,1.730320214928017e-8,0.092713648586613,89.99998930685537,1.54677923918302,5.852838878520821,0,2.10484107835447,1.421464742852067e-5,84.99737955444736,89.99999995558068
0.21275,1.110997459254904,18.283343878049198,18.349721328402065,143.69519588217804,143.79418415033734,0.096208275963413,1.844165695991976e-8,0.096208275963415,89.99998901727426,1.559361878145848,5.334611123935178,0,4.040874343489691,-5.65828128368714e-6,84.99047271165455,89.99999974874972
0.216125,1.173505217863342,18.75327760563442,18.819391655541498,134.78275858411013,134.8608379844478,0.101500070841335,2.117688659835739e-8,0.101500070841337,89.99998804585836,1.576096865892303,4.588421332546208,0,7.013016888242982,-8.447341746751363e-5,84.97184127523708,89.99999796658804
0.220609142743076,1.258912954467606,19.33109224453255,19.39674462765874,122.92973748372378,122.983888644582,0.1086104505836,2.673692239154246e-8,0.108610450583603,89.99998589534616,1.594545322021861,3.649179130393592,0,11.073847670018989,3.939712849042932e-5,84.93133319744399,89.99999616345667
0.224964932936851,1.344244866776807,19.841450737505944,19.90654618087361,111.40403175804465,111.43885341938461,0.115587808142383,3.425440665553853e-8,0.115587808142388,89.99998302041571,1.608543901290429,2.785634484218961,0,15.120888772128328,-1.190909982365243e-4,84.87431653470819,89.99999357919971
0.229224345082205,1.429734257637283,20.291944184700878,20.356402429663966,100.12274851530101,100.1422961923071,0.122462064103991,4.363756763768373e-8,0.122462064103998,89.99997958348592,1.618678807982967,1.978564229322418,0,19.155144615872974,-2.73730514310794e-5,84.80134195294973,89.99998897343019
0.231,1.465921116494724,20.465549919019445,20.529717345481572,95.41692266627324,95.43120098032335,0.125339225408241,4.814834536020429e-8,0.125339225408251,89.99997799015455,1.621900366079904,1.650754204992873,0,20.85459593942798,-4.673761771406277e-5,84.76582151053611,89.99998825769659
0.233663482376692,1.520765922489693,20.716001213193483,20.77972954692632,92.64592709188632,92.65911802692953,0.129664876314582,5.55745964068205e-8,0.129664876314593,89.99997544292708,1.626177658919469,1.563440697097806,0,23.418258398588453,3.389254300860932e-5,84.70686490563537,89.9999882567193
0.237658705941731,1.604259315667333,21.077835988300787,21.140938001125768,88.48734073052405,88.49935565248738,0.136173997670227,6.819512089703774e-8,0.136173997670244,89.99997130661744,1.632203914263083,1.458245982538681,0,27.28803712028173,1.469429008050958e-4,84.60558157734411,89.99999330645977
0.241776237063671,1.691785955305281,21.433357321867305,21.4958593228907,84.19888464276126,84.21018048115045,0.1429067666236,8.303878642068713e-8,0.142906766623624,89.99996670716082,1.6380360016386,1.37924674475364,0,31.295643071761205,1.638460425257769e-4,84.48497606892636,90.00000169050094
0.245879889404291,1.78043795426281,21.770106430715604,21.832061017816205,79.92235501574216,79.93336458157782,0.149640145515986,9.965171189270508e-8,0.14964014551602,89.99996184431328,1.64357971542762,1.326628082438532,0,35.296686700239526,1.612685294144727e-4,84.34834010339652,90.0000078042666
0.248,1.826770952045086,21.937207632063487,21.998900414030167,77.71195447831971,77.72296816681536,0.15312768308197,1.089382651627484e-7,0.153127683082008,89.99995923857337,1.646371991426055,1.308400481259261,0,37.36215668349606,1.306194110883521e-4,84.27131723887521,90.00001028752335
0.251180165893563,1.896926701292253,22.183232554259057,22.244580671968087,77.01224988627659,77.02811636480517,0.158370448443552,1.237570352532986e-7,0.158370448443601,89.99995522677446,1.650927834690942,1.563354778563212,0,40.45229038641637,6.042793798948919e-5,84.1475825266191,90.0000116957553
0.255305862524461,1.989100835058069,22.49908435752065,22.560101959596462,76.10167957385235,76.12627313502662,0.165196011108606,1.445639639180813e-7,0.16519601110867,89.99994986013921,1.658132534074878,1.934897275665998,0,44.435334627965744,-8.265264201483407e-5,83.9724599703055,90.00000738525122
0.259468278423723,2.083407979736726,22.81393386096559,22.874757953417998,75.17985137419625,75.21636874957062,0.172115766057449,1.673794279814956e-7,0.17211576605753,89.99994428090453,1.667025259241022,2.343517703186115,0,48.41181664028108,-2.785262902365294e-4,83.779208698223,89.99999901125099
0.263681777211261,2.180199048707624,23.128731751670394,23.189509362141163,74.24299361953344,74.29541121927308,0.179161875950676,1.923704643070411e-7,0.179161875950779,89.99993848012784,1.677829555141535,2.790345256559824,0,52.38106259093017,-2.835013181171147e-4,83.56684102294018,89.99998623895232
0.26796288282448,2.279893032358392,23.444528588130233,23.50541946063189,73.28672941277247,73.35995620432634,0.186371874126936,2.197671907932212e-7,0.186371874127065,89.9999324375925,1.690805518265389,3.276959914272307,0,56.342395527955375,-2.953003082181569e-4,83.33408435267805,89.99997477179737
0.272330825692952,2.382993395390056,23.762500783266894,23.823680934716858,72.30592094054353,72.40599298807423,0.193790132288705,2.49866186380757e-7,0.193790132288866,89.99992612483541,1.706261938985826,3.805472050734917,0,60.294168504396744,-2.154791464659907e-4,83.07931732415027,89.99996383370112
0.276809804984758,2.490147040483107,24.084093993011603,24.14576063623525,71.2941129121679,71.42845791210478,0.201472507080392,2.830405911407082e-7,0.201472507080591,89.99991950747257,1.724579148125726,4.378819905907988,0,64.23529050531155,-2.559375655048165e-4,82.80038949524004,89.9999556256489
0.28142867305521,2.602145056762717,24.41096879561769,24.47334701395578,70.24353208584773,70.42131404802542,0.209487004635957,3.197705537723476e-7,0.209487004636201,89.99991254109928,1.746229230335395,5.000767176654176,0,68.16228742040688,-2.579988406532619e-4,82.49456853226792,89.99994362053197
0.286226442992185,2.720067512135314,24.745346447956962,24.80869924561315,69.14373195897089,69.37636569517855,0.217925131879053,3.607299242106417e-7,0.217925131879352,89.99990515870282,1.771831659574372,5.676658159263767,0,72.07227557898351,4.10772259412976e-5,82.15808842401051,89.99993972118551
0.291255780783007,2.845389795321286,25.09017335957039,25.15481685366762,67.98061508586667,68.28252372884741,0.226911145092014,4.067889295882212e-7,0.226911145092378,89.9998972845128,1.802224106004787,6.413970636652966,0,75.96108681648984,2.516854222670971e-4,81.78573835266911,89.99994255759742
0.292255780783007,2.870513920241512,25.15804243597646,25.222976508355167,67.77634498868771,68.0938296624282,0.228716601099947,4.163336941102157e-7,0.228716601100326,89.99989570427583,1.808713556825501,6.567853383730042,0,76.70637361102672,2.467989153261696e-4,81.70940381573759,89.99994375386754
0.293755780783007,2.908327163505418,25.25956932781961,25.324962115071195,67.59265885620843,67.9357414734327,0.23143715415892,4.308903412421231e-7,0.231437154159321,89.99989332655738,1.818753282571923,6.818903012458193,0,77.80566227665841,3.656479497118819e-4,81.59351702970407,89.9999457736651
0.296005780783007,2.965332054687513,25.41134093875687,25.477474885300786,67.31501016027183,67.69902006418273,0.235546930114491,4.532638435365092e-7,0.235546930114927,89.999889745516,1.834523977873176,7.200466982989233,0,79.4116363239816,4.189897886286415e-4,81.41663777783377,89.99995035644726
0.299380780783007,3.051477913201536,25.63781965631891,25.705187685534163,66.8935926292538,67.34487806854072,0.241780558271152,4.880334522841947e-7,0.241780558271645,89.99988434861235,1.859805693776869,7.783306959002643,0,81.71962868133184,4.328482842959556e-4,81.14469356386954,89.99995526086573
0.304443280783008,3.182123861700604,25.974855290653693,26.0443513775908,66.25442160060723,66.81395973596408,0.251299178041479,5.42904789736151e-7,0.251299178042065,89.99987621864356,1.901349864968468,8.62883734740778,0,84.95352973370441,5.376651082512069e-4,80.7226890229119,89.99996513646869
0.310976829728642,3.353239991459347,26.404984777029846,26.477729167577436,65.40950479566048,66.13159544767595,0.263913797865747,6.185207107427711e-7,0.263913797866471,89.99986571893339,1.961356876349382,9.746004250026864,0,88.71604815707363,4.34794057161692e-4,80.15508554390391,89.9999756452843
0.31841178512477,3.551358685946633,26.887635362321205,26.964811804475747,64.4178105777648,65.35941471352355,0.278777754038332,7.111676583295814e-7,0.27877775403924,89.99985383731395,2.038661392592921,11.05435534355452,0,92.37062104768845,7.102577128142395e-4,79.48146400985046,89.99998048608333
0.327435014393605,3.796577614482521,27.463296308284196,27.54699024594538,63.16915657131895,64.42816630412361,0.2976449985556,8.332326286182188e-7,0.297644998556766,89.99983960519003,2.145699767813198,12.674631015536502,0,95.7986253876524,0.001634785174975,78.63164173094407,89.99999806974452
0.337435014393605,4.074345247923259,28.087827647330226,28.18033367519805,61.72696512854072,63.40253086754815,0.319765870595989,9.807453919872377e-7,0.319765870597493,89.99982426963945,2.281478489789677,14.479733990316072,0,98.15577766213734,0.002885521691496,77.66053970395654,90.00001589806985
0.347435014393605,4.358285086994012,28.697639968683923,28.800776656516835,60.22615858377542,62.38157934997399,0.343334479441248,1.140786946718798e-6,0.343334479443143,89.99980962507033,2.435199426404336,16.25642225211423,0,98.83574282353139,0.012232222812453,76.67412349634321,90.00005297624423
0.357435014393605,4.648247276385964,29.29223315372372,29.40793917907332,58.68652654041838,61.35895610095787,0.36852740916656,1.312729130817793e-6,0.368527409168898,89.9997959070697,2.60613960254714,17.91125613741381,0,-97.8758704794428,0.009913235067996,75.68916223851716,90.00007175616024
0.367435014393605,4.944077657202989,29.871196944722534,30.0015158071925,57.098062709243884,60.340842279362924,0.395511284613971,1.49636234895153e-6,0.395511284616801,89.99978322932733,2.793303388252096,19.514827230447246,0,-95.17688900248739,0.004685829327239,74.72256614562964,90.00004706455117
0.37,5.020884221786573,30.01712136969605,30.151537437458767,56.68337675003322,60.08105811429544,0.402740706427224,1.545564736051876e-6,0.40274070643019,89.99978012072057,2.843876670921981,19.918040675406267,0,-94.22884045350564,0.004091476186543,74.47963264466652,90.00003412533201
0.373847478409593,5.136792815584648,30.234290746498772,30.37513637372653,56.20491856959568,59.846012350227454,0.413831465044854,1.621193817932689e-6,0.413831465048029,89.99977554253026,2.921741394898474,20.556077515146132,0,-92.61559957243858,0.003359068435647,74.12011959810175,90.00001564480375
0.379618696023982,5.312213473566362,30.556569601107142,30.707724473047907,55.47843650591971,59.49601097983268,0.431041037779704,1.739138418776752e-6,0.431041037783213,89.9997688264396,3.043089963395803,21.492287113543927,0,-89.7742048510833,0.002297971387052,73.59357446753789,89.99999528340432
0.387089984877184,5.542050012714332,30.967519347159747,31.133243339113932,54.52805382082036,59.0474407336348,0.454387666795524,1.900707027255294e-6,0.4543876667995,89.99976033132343,3.20805023273775,22.655939700348615,0,-85.37163726912895,0.002038062966772,72.93879461776494,89.9999715971781
0.393318879198206,5.735996097313553,31.304693304189563,31.483648279631545,53.73338021235642,58.6769773309062,0.474815809126442,2.044029014753459e-6,0.474815809130842,89.99975334806994,3.352056999243222,23.573534305360806,0,-81.10671583498424,0.001451690008243,72.42003453989012,89.99995265225554
0.398827049152827,5.909239257857585,31.5987369444067,31.7902286489691,53.03385633835888,58.35144633082706,0.49364104209194,2.177924417664426e-6,0.493641042096744,89.9997472133259,3.484029430404256,24.33724246461999,0,-76.91105276212828,0.001297051505034,71.98466234557374,89.99994272359321
0.403848895647624,6.06858935512555,31.86349292598263,32.06709840440834,52.410913364390325,58.05312323553392,0.51144690073411,2.306253239699009e-6,0.51144690073931,89.99974163774006,3.607855129278756,24.96520133526784,0,-72.76644169845807,0.001309702868956,71.60871584821335,89.99993170632436
0.408540033054683,6.218639974054632,32.10801743095231,32.32351621876737,51.84030267488609,57.77360318919539,0.528648556523564,2.431839854731486e-6,0.528648556529157,89.99973643329126,3.726247093065604,25.50239682929443,0,-68.65426069902028,8.627887477076338e-4,71.27691655453087,89.99992268099955
0.412983619407584,6.361824773279563,32.33719211429049,32.56446510464832,51.31005926067839,57.50810548550986,0.545459809570146,2.556135817191241e-6,0.545459809576136,89.99973150030195,3.84062413096193,25.970368022001544,0,-64.55977024370975,6.500325488297074e-4,70.98087344288632,89.9999168343529
0.417229919955532,6.499599299510906,32.55401389352114,32.79299315422893,50.81459146991708,57.25318159338123,0.562003645877745,2.679965720208629e-6,0.562003645884135,89.99972677984186,3.95178180492529,26.378098800143228,0,-60.479405477106994,7.961028315243408e-4,70.71534065464152,89.99991373498551
0.421314978033049,6.633007025125188,32.760641101809924,33.01129245755006,50.349928632210315,57.00630281449554,0.578368010237663,2.803911106469214e-6,0.57836801024446,89.99972223174572,4.060273921338784,26.732064030098574,0,-56.41137125553705,0.001013381308572,70.47654199657903,89.99990776038315
0.425268008573144,6.762903088462054,32.95880777667133,33.221126568183564,49.91287963851469,56.76539787706199,0.594628080042309,2.928510992945436e-6,0.59462808004952,89.99971782139832,4.166562179987383,27.03728614954357,0,-52.352961133725266,0.001246660858963,70.26153010207726,89.99989913747068
0.429111382697007,6.889943739859585,33.14984590715794,33.423848165193945,49.501039570460605,56.52884343317532,0.610842091624574,3.054244399484289e-6,0.61084209163221,89.99971351791883,4.270988468917099,27.297568048017414,0,-48.303679825994415,0.001249753751947,70.0680685697505,89.9998882098555
0.432864482495997,7.014706129110669,33.334894557769935,33.62061638923083,49.112362775392306,56.29522225397724,0.627064324830302,3.181588659712579e-6,0.627064324838374,89.99970929361614,4.373859990234891,27.515956665959372,0,-44.261788512564365,0.001389934636223,69.89433926468959,89.99987657125624
0.436542898633408,7.137657170772647,33.51487074230983,33.81236310994393,48.745247621812176,56.063367823065384,0.643339780917135,3.310974059489685e-6,0.643339780925655,89.99970512496611,4.475414864005565,27.694801785760045,0,-40.22671925041411,0.001191150008351,69.7389263341231,89.99986462040289
0.440160091301376,7.259205044623959,33.69055998140657,33.99988689490522,48.39835357130132,55.832259317936945,0.65970972606774,3.442825330255149e-6,0.659709726076724,89.9997009906733,4.575858062221061,27.83595789860053,0,-36.197358590099434,0.001359383157966,69.6006889304629,89.9998525632297
0.443726832190043,7.379677693155328,33.86259561902736,34.18382916622052,48.070642797477056,55.60105707701842,0.676207926233227,3.577513456118626e-6,0.67620792624269,89.99969687367712,4.675338961784216,27.94084553336257,0,-32.174464956474566,0.001171586946017,69.47874337229612,89.99984127831661
0.447253936369349,7.499412956834748,34.031595595692764,34.36481903282943,47.7611141722868,55.36892686822892,0.692872294615301,3.715458889369102e-6,0.692872294625263,89.99969275707085,4.774022242338274,28.010605769262963,0,-28.15741032220665,0.001624086637528,69.37233557942535,89.99982796539152
0.450752336732188,7.618760768901176,34.19816658611197,34.54347761355613,47.467286098130934,55.135626673040846,0.709745233498213,3.857142172145804e-6,0.709745233508694,89.99968862352712,4.872088647262937,28.049849894555926,0,-24.145166963119134,0.001707112689148,69.2808409173273,89.99981316156627
0.454228691417482,7.737931970715233,34.3626840235595,34.72018725358816,47.18459945782868,54.90221098463487,0.726851888876491,4.002937929680601e-6,0.726851888887514,89.99968445916902,4.969642806201886,28.06895696326522,0,-20.13347343894849,0.001642229949496,69.20387016266453,89.99979832474895
0.457685415162796,7.856995641969274,34.52532381203126,34.89511382783922,46.91844358198505,54.6662577888063,0.744198256263301,4.153069895928295e-6,0.744198256274889,89.99968025539559,5.066654195052513,28.05457881480866,0,-16.126786874556846,0.002301210959999,69.1411959289473,89.99977978954824
0.461132362724924,7.976280848960518,34.686613373396746,35.06879884925115,46.66806212094496,54.42700391669386,0.761829334265184,4.308143816076816e-6,0.761829334277365,89.99967599244727,5.163284363051582,28.006976509852535,0,-12.125137312989741,0.002054409746453,69.09250389360804,89.9997580912688
0.464577071534814,8.09604254120792,34.84696193452695,35.24165816933776,46.43292338951286,54.18384652278369,0.779781367678376,4.468731899065646e-6,0.77978136769118,89.99967165222434,5.25963063894038,27.926203635800697,0,-8.12973951595601,0.002132300789683,69.05762058874359,89.99973883670224
0.468030216650721,8.216650549723541,35.006916346877155,35.41425705283992,46.21233481417154,53.93596082860598,0.798109924017383,4.635600574214715e-6,0.798109924030846,89.99966721332436,5.355876257660116,27.812011461378116,0,-4.138495653057096,0.001867807125936,69.03644420307901,89.99971921067468
0.471501135876863,8.338434672862585,35.166952766066764,35.587085276827345,46.005765898837,53.68261072909148,0.816866986737979,4.809513501512269e-6,0.816866986752137,89.99966265643049,5.452162107770715,27.66391510167306,0,-0.152442534605948,0.001668632700257,69.02900614955955,89.99970197372097
0.475,8.461760263067553,35.32757853413215,35.760666374079385,45.81269870480568,53.42299567805291,0.836112336720621,4.991328218320021e-6,0.836112336735519,89.99965796217981,5.548644377948289,27.481140889707536,0,3.828555259600437,0.001509938570656,69.0354504040311,89.99968726341578
0.478536360900188,8.58697776758213,35.48956869403719,35.93580265829024,45.80384642741587,53.33684850142008,0.855905881801031,5.181928719291787e-6,0.855905881816718,89.9996531129746,5.645566987185208,27.328136791906253,0,7.798623117171863,0.001201040597082,69.05602763465467,89.99967376559799
0.482126988136559,8.714702850139787,35.65403976689324,36.11366445157372,45.80998446688944,53.24527985497615,0.876352784846969,5.382682429359768e-6,0.8763527848635,89.99964808123964,5.743362118276591,27.13862837318932,0,11.7604604562468,0.001576537607287,69.09116573068079,89.99965957495752
0.485789505543596,8.845593679273339,35.82185424772128,36.29515537838847,45.83137915355671,53.147841752229446,0.897569477216252,5.595162017731604e-6,0.897569477233692,89.99964283637372,5.842350742327538,26.91055123558324,0,15.71327943259162,0.0015179500485,69.14150713583297,89.99964299530015
0.489543361309884,8.980386746630638,35.9939635107969,36.481271481937966,45.8684250868086,53.04402573674412,0.919689811567595,5.821240311669558e-6,0.919689811586018,89.99963734239827,5.942874701883031,26.6412508418092,0,19.654629202768238,0.001004526461912,69.20792756431125,89.99963040412801
0.493413767765525,9.120041694784152,36.17159128688766,36.67329775359247,45.92169881446322,52.933153690284264,0.942889933972143,6.063346858384763e-6,0.942889933991639,89.99963155383023,6.0453909632052,26.327102719307756,0,23.583148780232126,0.001114456584216,69.29164848064711,89.99961817878484
0.497432062568087,9.265760733313702,36.356254579603785,36.87282789989176,45.99200882996539,52.81436123799289,0.967393690813289,6.324573486841986e-6,0.967393690833963,89.99962541479086,6.150462606834939,25.963279391509683,0,27.496022321363697,0.001059885034653,69.39433375028152,89.99960751298077
0.501639279421812,9.419126675641975,36.54992760636987,37.08194056157159,46.07135604270222,52.69000143856267,0.993498593655706,6.609045157137898e-6,0.993498593677689,89.99961885160529,6.258842367486996,25.56690055486392,0,31.392189976401983,0.001132815133996,69.51828169522605,89.99959798241503
0.506068585696184,9.581469692486458,36.75417181352074,37.3022918270092,46.15518826548074,52.56120720465127,1.021470380003548,6.920851216897313e-6,1.021470380026994,89.99961179925224,6.371171779943993,25.147148923651642,0,35.28659903338619,0.0010835280711,69.66603166572538,89.99958678562692
0.51075083620322,9.754068239928644,36.97051977797736,37.53546035667696,46.2592225434923,52.42145668219834,1.051575716323233,7.26441481890716e-6,1.051575716348325,89.99960419368449,6.48779250083202,24.659550895246472,0,39.15251003355746,0.001060279203852,69.84040884707987,89.99957398665937
0.515774165518122,9.940367502507737,37.203207149454734,37.78589793049813,46.38580892414186,52.26824075171301,1.084474814191855,7.649154777313188e-6,1.084474814218831,89.99959587416895,6.610254171269284,24.089950637808162,0,42.98038910219249,8.856802346760231e-4,70.04684525584561,89.99956489407892
0.521278877511516,10.145863987714176,37.458962660629595,38.06067998566003,46.53872960078948,52.09751607764465,1.121224000654026,8.090212624817749e-6,1.121224000683214,89.99958658123755,6.741029399162994,23.415760261094324,2.951867814052241e-7,46.751315238376144,0.00158053838981,70.29403247029961,89.99955217591908
0.527505984058602,10.380028436201316,37.74933694319579,38.371947525685215,46.724416645540806,51.90229501739791,1.163649903591367,8.613992880612744e-6,1.16364990362325,89.99957586432542,6.884324023679652,22.598166235491703,3.262973915378264e-7,50.4284836356784,0.001794377619517,70.59694532725243,89.99952972398538
0.534947697143448,10.662244072985251,38.09790353083118,38.744469252680034,46.95560231086079,51.668272296846794,1.215497337216776,9.275303487758467e-6,1.215497337252165,89.9995627832927,7.04866258430273,21.558798059386117,3.643665537383694e-7,53.92517258846348,0.001183135228308,70.98586248944981,89.9995099405448
0.544947697143448,11.045576103555415,38.569015572401476,39.24579333829757,47.264846689645466,51.35657446072575,1.287037624503194,1.022538959312805e-5,1.287037624543814,89.99954479056679,7.256950635646765,20.08810612637185,3.052069406700919e-7,56.93854249769066,-2.081749575334346e-4,71.54184377287378,89.9995242691682
0.554947697143448,11.433634428479575,39.04312442087005,39.74761005624824,47.55130863681756,51.05223705088811,1.360586400775039,1.124397359337905e-5,1.3605864008215,89.99952650399014,7.450298023571072,18.579665089182647,0,57.877098290775955,-0.009499461308723,72.11769685951634,89.99954415334103
0.564947697143448,11.826447587901512,39.51992574125178,40.249457722903664,47.80369935596073,50.75733556138464,1.435993097905509,1.232763028353265e-5,1.435993097958424,89.99950813051423,7.62851993467634,17.06204680499739,3.68236657410239e-7,-56.661797101391564,-0.00146634215687,72.69217714737086,89.99957759067718
0.574947697143448,12.22404078856181,39.99906769133361,40.75088071435033,48.017007068345805,50.475030306240974,1.513106125866329,1.347233862523842e-5,1.513106125926307,89.99948985194749,7.791589235792753,15.559425330466867,6.501492124094616e-7,-53.35220824487766,-0.001312340097759,73.24393637371377,89.99962902378127
0.584231388231412,12.597451357419331,40.445584782468465,41.215619002894925,48.16871248041398,50.227714347223426,1.586091938432209,1.458543002168159e-5,1.586091938499272,89.99947311781723,7.929812191719829,14.233707406206026,5.103354612611537e-7,-48.53681457919716,-0.002060175724339,73.71812277539185,89.99964893066753
0.590862932049279,12.866727805853632,40.76528732978337,41.546952142139176,48.24540414914061,50.060263411994626,1.638985257703949,1.540932530001827e-5,1.638985257776387,89.99946131955693,8.021258082209181,13.35705623872166,5.238238184617981e-7,-44.163871869657456,-5.54037564842878e-4,74.02590087743454,89.99966057612667
0.596467129245238,13.095942387659594,41.03579311836855,41.826451775943625,48.28797576335484,49.924371181482755,1.684144081846707,1.612352596239835e-5,1.684144081923888,89.99945146617893,8.09418008891534,12.677311802749092,4.619741972907766e-7,-39.92506004097988,-4.258006072621064e-4,74.26174497235064,89.99968426843472
0.601484104125637,13.30242573863812,41.2781107039135,42.07622629547519,48.30852526039866,49.80649397908672,1.724909547723726,1.677620331123888e-5,1.724909547805307,89.99944275011569,8.156371496167846,12.123251612262537,5.229231325066827e-7,-35.75458593695652,-5.61106698898762e-4,74.45172744592193,89.99970122833992
0.606111770260271,13.493964353598994,41.501682478002024,42.306222643302895,48.31296576180911,49.70035781440495,1.762782625560894,1.738890653425721e-5,1.76278262564666,89.99943480782018,8.211383917453517,11.66117087509416,4.339173764243843e-7,-31.623529737748406,-8.01078577987293e-4,74.6077277197788,89.99971259882997
0.61045904096906,13.674839910279518,41.711696051136784,42.52191744752289,48.30338968720491,49.602593361092154,1.798588678293802,1.797359850025915e-5,1.798588678383609,89.99942743366003,8.261227266667566,11.278289447956631,3.928060552774022e-7,-27.523824019410515,-3.36262596999923e-4,74.73636304379264,89.99972454947962
0.614602963457468,13.848104627580623,41.91182092208434,42.72717928613619,48.28173537918922,49.510725301392185,1.832918461214145,1.85389243242654e-5,1.8329184613079,89.99942048588468,8.307292985368884,10.962935220271266,4.156702767417154e-7,-23.446049910858466,-6.337125454332541e-5,74.8420231384416,89.99973506543698
0.618597741742084,14.015918226890829,42.104634594959165,42.92472622419369,48.24920897832337,49.4230180704672,1.866191017338666,1.909102938064393e-5,1.866191017436316,89.99941386739089,8.35056088217728,10.707406229325915,4.655019499272471e-7,-19.385126489353482,4.287553498707454e-4,74.9276127636103,89.99975267261783
0.622479013722254,14.179701084844934,42.2918237226609,43.11634520179249,48.20660069431563,49.338298291132865,1.898681931047396,1.963389249549836e-5,1.898681931148911,89.99940751573133,8.391714352354391,10.506727738150037,5.146940479472269e-7,-15.338971592924715,6.18080614682553e-4,74.99502824657756,89.99977240373249
0.626278200230898,14.340723394200802,42.474873636498266,43.30360560450196,48.15434944337025,49.255595767195196,1.930639057135458,2.01711726990981e-5,1.930639057240832,89.99940137797421,8.431332511160871,10.357236314148906,5.394487422426323e-7,-11.306634576388918,8.151726178943951e-4,75.04566342954932,89.99979146342835
0.630020162460487,14.499999764386741,42.65495313552556,43.48774532727248,48.09265813830768,49.174170268598004,1.96226103509312,2.07058221137992e-5,1.962261035202364,89.99939541365946,8.46988587029525,10.256473799358945,5.84360562264741e-7,-7.287166825423256,5.278199231661525e-4,75.08046348002169,89.99980764643361
0.633729440847692,14.658549549966802,42.833213239753,43.66997930488073,48.02146016765204,49.093360495270346,1.993748608250147,2.124094674197957e-5,1.993748608363295,89.9993895837238,8.507816173763944,10.202813733729526,5.693777032009736e-7,-3.278171341818317,-1.534940237183357e-4,75.1000626523918,89.99981330166767
0.637425872597354,14.817207493891129,43.010574782601864,43.8512845247689,47.94052888939025,49.01267096036665,2.025266830747992,2.177925307892866e-5,2.025266830865097,89.99938385438236,8.545502404332296,10.195469801569084,5.25753575225038e-7,0.720735968323188,-3.738974436354451e-4,75.10478692207867,89.99980988113448
0.641128913436933,14.976805898897652,43.18793494629306,44.03261302013955,47.84943091144995,48.93167449307731,2.056981140334819,2.232357000246011e-5,2.056981140455954,89.99937819247845,8.583314304866235,10.234291873248992,5.104737645116024e-7,4.707240930535575,3.816376025731575e-4,75.0947267888515,89.99980772604839
0.644860278281854,15.138288716179964,43.36629156300872,44.21502059849742,47.7474610453797,48.84995488175857,2.089080035703141,2.287716035564543e-5,2.089080035828403,89.99937256365806,8.621647325057397,10.319789516739004,5.335740432790429e-7,8.679742318085104,-2.747483717302352e-4,75.0697330590767,89.99980359486185
0.648646986602841,15.30284627648583,43.546884854631784,44.399813856176564,47.63351476125054,48.76704468773815,2.121801979430189,2.344423684859636e-5,2.121801979559709,89.99936692686767,8.660963567673592,10.453368790278898,5.776409926017336e-7,12.639140127523717,-3.757090668457251e-4,75.02934196266703,89.9997888236476
0.652516242631641,15.471696586960737,43.73095968633342,44.588298289278114,47.51534013036488,48.681789177987525,2.15539209273422,2.402931452920013e-5,2.155392092868166,89.99936123997497,8.701695768407596,10.592877317601667,5.479010354576635e-7,16.594578372761887,-7.921041693129415e-5,74.97275890761738,89.9997728303059
0.656467147205614,15.644843961453281,43.91844112918727,44.78040392797987,47.388318757597254,48.5945217856299,2.189854740612704,2.463283836357735e-5,2.189854740751247,89.99935550169175,8.743860974143336,10.759869557871754,5.927916024731146e-7,20.550085499231507,-5.292215025706276e-4,74.89935028748414,89.99974966462865
0.660512572791517,15.822900133697788,44.1098638256274,44.97672572628127,47.246273755848236,48.50555773073365,2.225315993711571,2.525744511655974e-5,2.225315993854908,89.99934969010673,8.787819430424065,10.980835439846159,5.602189027270956e-7,24.487485526696997,-5.522389472792996e-4,74.80820815477131,89.99972275499032
0.664693960504602,16.007753147619294,44.30708964488261,45.179232728858175,47.08666212202208,48.41433513184135,2.262158046119766,2.591053060542317e-5,2.262158046268155,89.99934373990752,8.83430117036236,11.26028847165021,5.699518058704478e-7,28.403545478667407,-0.001058355039815,74.69756871000205,89.99968496605422
0.669064155483192,16.201832849007904,44.51247782695056,45.39042288462729,46.90595103803916,48.32020107116621,2.3008742486282,2.660178248819297e-5,2.30087424878198,89.9993375692457,8.884244894786049,11.604895035070554,6.400475083600773e-7,32.29444196363979,-0.001449949787771,74.56485633487306,89.99964278866307
0.671,16.288089922632984,44.603199045117854,45.48381838868164,46.82138259650337,48.279019019889304,2.318094614011228,2.691098496614842e-5,2.318094614167434,89.99933484774449,8.906872074761818,11.773776338740475,6.410465974478297e-7,33.94237461888363,-0.001386310228786,74.50073622860444,89.99962143920926
0.673903766775212,16.417805019678102,44.73958422614598,45.62436821919145,47.11423262069337,48.65898605726787,2.344008270356546,2.73784614672991e-5,2.344008270516439,89.99933077442114,8.941620584209387,12.163305828786088,6.493637584698631e-7,36.31814048224707,-0.001817328882517,74.3986971161266,89.99958573486437
0.67825941693803,16.613123276293763,44.94573213798756,45.83716631068825,47.540968885149766,49.23072217112092,2.383072158429434,2.80884951875713e-5,2.383072158594969,89.9993246733124,8.9959423060603,12.787504954107272,6.42691253987992e-7,39.64256449855322,-0.002733540287195,74.23315946467291,89.99952375179893
0.683748841209351,16.86056838724851,45.20813338833732,46.10869655206825,48.057603344445376,49.95480835287435,2.432651553477775,2.899993480269581e-5,2.432651553650631,89.99931697004948,9.068438303975542,13.636335224698687,7.114554115449249e-7,43.382645435363536,-0.003510905854019,74.00503706013058,89.99943492159234
0.690073201524147,17.147445831564482,45.51387498773045,46.42608314984685,48.6244090531235,50.79449768938222,2.490283232123149,3.007600985056976e-5,2.490283232304768,89.9993080191013,9.1579681282334,14.68835728565917,7.050576350719373e-7,46.99632080772659,-0.002664953461907,73.71882816443608,89.99934013547563
0.697948822861965,17.507410841525544,45.899473037364075,46.828017582833496,49.290544101863325,51.848731053533136,2.562877690897212,3.146027646162919e-5,2.562877691090305,89.99929667300553,9.279095086831015,16.085184922899643,6.263286504791231e-7,50.334741824603775,-0.004942241071657,73.33467772977612,89.99923927965011
0.702,17.693763117863394,46.099824666873836,47.037613484946526,49.61904521205113,52.39419879527133,2.600602974286949,3.219350572355106e-5,2.600602974486215,89.99929072141198,9.345760966487084,16.825647673799594,6.405879901758393e-7,51.516608696275725,-0.006801730854971,73.12824304826225,89.99918170231965
0.708076765707052,17.974805466079985,46.39560544653102,47.348068200900414,47.727550566454006,50.73799224903575,2.657708057705265,3.33228963351912e-5,2.65770805791417,89.99928161360104,9.449198781216214,17.216990863382243,6.291394918067718e-7,52.58596119465123,-0.012371410782732,72.81150553801828,89.99910874580215
0.717191914267631,18.3996516227274,46.8176739668662,47.79353346809098,44.879061000641464,48.27012187396226,2.744562062206049,3.508898440554645e-5,2.744562062430354,89.9992674785018,9.608706765103769,17.772859911333136,6.66242424513499e-7,-52.55793960504436,-0.021391015306266,72.3308155442145,89.99897299487141
0.723,18.67231943223853,47.07305363142968,48.06467160113131,43.060242503372365,46.70904166354398,2.800671902753378,3.626402388305397e-5,2.800671902988157,89.99925811534204,9.712892356921486,18.098344915418416,6.815091421436778e-7,-51.51716977365333,-0.007466069303425,72.02819734253232,89.99886434654594
0.731712128598554,19.08405749101838,47.44730832413791,48.46425405777867,42.85570494164035,47.02213146354994,2.88599480503935,3.810918828220632e-5,2.885994805290963,89.9992434166391,9.87607483624492,19.35121188273325,6.274482860854089e-7,-48.52895760147262,-0.002954315030913,71.591183254712,89.9986832282709
0.740864700036409,19.520114462121246,47.83860846952778,48.884688470687934,42.65482420308875,47.353377629009806,2.977214240869123,4.01697624526257e-5,2.977214241140116,89.99922694248176,10.058842208496724,20.564735473115142,4.165595497737306e-7,-43.693237237585045,-0.002419299593125,71.16790833617165,89.99851241699949
0.747369132714268,19.832178893558044,48.11565139192479,49.183910274696835,42.53528129416511,47.58522277121449,3.043081906666945,4.171940543092132e-5,3.043081906952923,89.9992144983513,10.195151839977404,21.33314958960251,2.991614144752101e-7,-39.33207987078246,-0.001896004200698,70.89751133019006,89.99841027873096
0.752894430623673,20.098681034892284,48.35040891727578,49.438408003592116,42.424785682508166,47.791705921598215,3.099741869648574,4.309633137729581e-5,3.099741869948162,89.99920340531435,10.314753679165596,22.004197660668652,0,-35.08688091507435,-8.862439002240212e-4,70.69166292904676,89.99832864202774
0.757746167377731,20.33376339761383,48.55598841055926,49.6620851802506,42.32364920099923,47.98039884203,3.150047732693016,4.435399977552187e-5,3.150047733005278,89.99919325127516,10.42298872320705,22.601490909916343,0,-30.857620154854075,-9.783507808116241e-4,70.53150863560367,89.99826841378331
0.762108830968315,20.54599937075761,48.74047198306695,49.86341134626944,42.253811490877915,48.144880999122925,3.19573636889522,4.552539216404342e-5,3.19573636921949,89.9991837834757,10.522650899613495,23.0769361249075,2.960577472019105e-7,-26.693174595321917,-0.001550156164714,70.40585492160423,89.99823205071537
0.766146858364963,20.743159086536558,48.91099841971586,50.04996067356077,42.21000736437262,48.291240944733744,3.238416343422385,4.664466685994724e-5,3.238416343758309,89.99917473781494,10.616628325957931,23.459736364288865,3.35485408818951e-7,-22.57359806014328,-0.00240822868408,70.30630632395021,89.99821493848816
0.769964296561117,20.930181296509275,49.07208615468381,50.2265364525491,42.1892139431081,48.42326793194415,3.279116383500394,4.773414255602512e-5,3.279116383847827,89.99916594454508,10.706788708409874,23.76726959647457,3.052200079149757e-7,-18.481984311355912,-0.002518294078701,70.22788716900862,89.99821495921012
0.773620559333693,21.109883725976534,49.226335627437365,50.395889986069484,42.18971454094517,48.54308059599963,3.318422649011755,4.880620535820475e-5,3.318422649370668,89.99915731361654,10.794146940954123,24.009553529861314,3.344685660234363e-7,-14.414717532288593,-0.002300135576635,70.16770901658822,89.99822021993549
0.777163025689394,21.28453111720584,49.375821972063285,50.560223532073074,42.21045066211333,48.65232159365445,3.356811611525887,4.987151437275602e-5,3.356811611896353,89.99914876745495,10.879540808154923,24.193516721503535,3.059814052633515e-7,-10.366319306255576,-0.002291092417121,70.12378892827113,89.99822938093564
0.780625331958466,21.455738405982473,49.52203155420426,50.721109442266446,42.250831325167745,48.75212213613349,3.394625209253078,5.093785589151972e-5,3.394625209635251,89.99914025143283,10.9635456764118,24.32358248919556,0,-6.336081225116907,-0.00127092415896,70.09485803067258,89.99823807723222
0.784037260436278,21.624950068393602,49.666284693510036,50.879947742544715,42.31063830206207,48.84343425818701,3.432173798749422,5.20128092781685e-5,3.432173799143536,89.99913171225387,11.046684888566869,24.402683389453607,0,-2.318807234450909,-0.002414118026944,70.0800844920951,89.99825083125288
0.787422471790757,21.79332351386202,49.80964371315273,51.03786044888615,42.38991589059342,48.92698098678202,3.469709065083932,5.310274837217037e-5,3.469709065490292,89.99912310706604,11.129357230710202,24.432447672497837,0,1.683646914174276,-0.003375535161102,70.07900834551596,89.99828029614996
0.790804497264806,21.962023607197903,49.95316947025683,51.19597067635746,42.489010390205166,49.00343299985453,3.507488552128251,5.421443913569462e-5,3.507488552547241,89.9991143923908,11.211970093175164,24.41352989291531,0,5.67343060887421,-0.004773452411291,70.09145694171762,89.99832326373466
0.79420925775093,22.132348681083947,50.098032450209814,51.355522245609144,42.60865621844559,49.073459762515235,3.545804022698798,5.535586286811711e-5,3.545804023130896,89.99910551815805,11.294990470867145,24.34557184215479,0,9.649978163552467,-0.004496346848903,70.11755824125149,89.99837743243897
0.797658703712099,22.30541290020932,50.245246407545096,51.51758347105996,42.74975547761059,49.13760128965748,3.584910111767911,5.653416026933215e-5,3.584910112213684,89.99909644351449,11.37877937841781,24.227304165050057,0,13.60824346037025,-0.004644053479426,70.15769766849367,89.99842962156833
0.801185414961681,22.482879560319383,50.396294711098015,51.683734574854334,42.911434983787295,49.19783951003575,3.625190117764864,5.776062814165542e-5,3.625190118225018,89.99908709885365,11.463939069802654,24.06317020027557,0,17.550923643294933,-0.004162610267192,70.21267605263037,89.99848425953662
0.804815426308483,22.666101791198503,50.55238699783578,51.855258307401066,43.09286363772023,49.255957136559026,3.666962461851538,5.904496389200925e-5,3.666962462326905,89.99907743063437,11.550929960324874,23.856957411610345,0,21.479539784020723,-0.003926390749091,70.28356060514298,89.998541000978
0.808582532901553,22.856844270551765,50.71510896108932,52.03382749424182,43.30139183537089,49.31003158640551,3.710644723107146,6.040017279447021e-5,3.71064472359873,89.99906736558175,11.640314719343014,23.589588384963047,0,25.38677500348028,-0.004038309041569,70.37189560330215,89.99859585802828
