# Time (s),Altitude (m),Altitude above sea level (m),Vertical velocity (m/s),Total velocity (m/s),Vertical acceleration (m/s²),Total acceleration (m/s²),Position East of launch (m),Position North of launch (m),Lateral distance (m),Lateral direction (°),Lateral velocity (m/s),Lateral acceleration (m/s²),Latitude (° N),Longitude (° E),Angle of attack (°),Roll rate (°/s),Pitch rate (°/s),Yaw rate (°/s),Vertical orientation (zenith) (°),Lateral orientation (azimuth) (°),Mass (g),Motor mass (g),Longitudinal moment of inertia (kg·m²),Rotational moment of inertia (kg·m²),Gravitational acceleration (m/s²),CP location (cm),CG location (cm),Stability margin calibers (​),Thrust (N),Thrust-to-weight ratio (​),Drag force (N),Drag coefficient (​),Friction drag coefficient (​),Pressure drag coefficient (​),Base drag coefficient (​),Axial drag coefficient (​),Normal force coefficient (​),Pitch moment coefficient (​),Yaw moment coefficient (​),Side force coefficient (​),Roll moment coefficient (​),Roll forcing coefficient (​),Roll damping coefficient (​),Pitch damping coefficient (​),Wind velocity (m/s),Wind direction (°),Air temperature (°C),Air pressure (mbar),Air density (g/cm³),Speed of sound (m/s),Mach number (​),Reynolds number (​),Reference length (cm),Reference area (cm²),Simulation time step (s),Computation time (s),Coriolis acceleration (m/s²)
0,0,0,0,0,0,0,0,0,0,0,0,0,32.367,-106.83,90.01166961505233,0,0,0,90.01166961505233,0,2793,836,0.673,0.007,9.795,NaN,133,NaN,0,0,0,1.048,0.591,0.337,0.12,0,NaN,NaN,NaN,NaN,NaN,NaN,NaN,NaN,2.186,90.01166961505233,15,1013,0.001225,340.389,0.006,3.03e5,10.2,80,0.002,0.005,0
0.002,0,0,0,0,0,0,0,0,0,0,0,0,32.367,-106.83,90.01166961505233,0,0,0,90.01166961505233,0,2791.9999999999995,836,0.673,0.007,9.795,NaN,133,NaN,22.259,0.814,0,1.048,0.591,0.337,0.12,0,NaN,NaN,NaN,NaN,NaN,NaN,NaN,NaN,2.183,90.01166961505233,15,1013,0.001225,340.389,0.006,3.027e5,10.2,80,0.002,0.008,0
0.004,2.883e-6,2.883e-6,0.005,0.005,6.149,6.15,-1.321e-7,0,1.321e-7,269.9777130656439,1.651e-4,0.099,32.367,-106.83,89.89707805602616,0,0,0,90.01166961505233,0,2791.9999999999995,836,0.673,0.007,9.795,NaN,133,NaN,44.518,1.628,0,1.048,0.591,0.337,0.12,3.047e-8,NaN,NaN,NaN,NaN,NaN,NaN,NaN,NaN,2.181,90.01166961505233,15,1013,0.001225,340.389,0.006,3.023e5,10.2,80,0.002,0.009,0
0.006,3.036e-5,3.036e-5,0.025,0.025,14.122,14.122,-6.6e-7,0,6.6e-7,269.9777130656439,3.628e-4,0.099,32.367,-106.83,89.32412026089534,0,0,0,90.01166961505233,0,2791.9999999999995,836,0.673,0.007,9.795,NaN,133,NaN,66.778,2.442,9.557e-8,1.048,0.592,0.337,0.12,4.057e-6,NaN,NaN,NaN,NaN,NaN,NaN,NaN,NaN,2.178,90.01166961505233,15,1013,0.001225,340.389,0.006,3.02e5,10.2,80,0.002,0.012,0
0.008,1.143e-4,1.143e-4,0.061,0.061,22.096,22.096,-1.583e-6,0,1.583e-6,269.9777130656439,5.6e-4,0.099,32.367,-106.83,88.40738778868602,0,0,0,90.01166961505233,0,2791.9999999999995,836,0.673,0.007,9.795,NaN,133,NaN,89.037,3.256,1.371e-6,1.049,0.592,0.337,0.12,5.832e-5,NaN,NaN,NaN,NaN,NaN,NaN,NaN,NaN,2.176,90.01166961505233,15,1013,0.001225,340.389,0.006,3.017e5,10.2,80,0.002,0.013,0
0.01,2.867e-4,2.867e-4,0.114,0.114,30.071,30.072,-2.9e-6,0,2.9e-6,269.9777130656439,7.57e-4,0.098,32.367,-106.83,87.03228908037204,0,0,0,90.01166961505233,0,2791.9999999999995,836,0.673,0.007,9.795,NaN,133,NaN,111.296,4.07,8.56e-6,1.049,0.592,0.337,0.12,3.642e-4,NaN,NaN,NaN,NaN,NaN,NaN,NaN,NaN,2.173,90.01166961505233,15,1013,0.001225,340.389,0.006,3.017e5,10.2,80,0.002,0.018,0
0.012,5.793e-4,5.793e-4,0.182,0.182,38.047,38.047,-4.611e-6,0,4.611e-6,269.9777130656439,9.541e-4,0.099,32.367,-106.83,85.19882413595342,0,0,0,90.01166961505233,0,2791.9999999999995,835,0.673,0.007,9.795,NaN,133,NaN,133.555,4.884,3.441e-5,1.048,0.592,0.337,0.12,0.001,NaN,NaN,NaN,NaN,NaN,NaN,NaN,NaN,2.171,90.01166961505233,15,1013,0.001225,340.389,0.006,3.019e5,10.2,80,0.002,0.02,0
0.014,0.001,0.001,0.266,0.266,46.024,46.024,-6.717e-6,0,6.717e-6,269.9777130656439,0.001,0.099,32.367,-106.83,83.0215845144563,0,0,0,90.01166961505233,0,2791,835,0.673,0.007,9.795,NaN,133,NaN,155.815,5.699,1.052e-4,1.048,0.591,0.337,0.12,0.004,NaN,NaN,NaN,NaN,NaN,NaN,NaN,NaN,2.168,90.01166961505233,15,1013,0.001225,340.389,0.006,3.028e5,10.2,80,0.002,0.027,0
0.016,0.002,0.002,0.366,0.366,54.002,54.002,-9.219e-6,0,9.219e-6,269.9777130656439,0.001,0.1,32.367,-106.83,80.3859786568545,0,0,0,90.01166961505233,0,2791,835,0.673,0.007,9.795,NaN,133,NaN,178.074,6.513,2.665e-4,1.047,0.591,0.337,0.12,0.011,NaN,NaN,NaN,NaN,NaN,NaN,NaN,NaN,2.166,90.01166961505233,15,1013,0.001225,340.389,0.006,3.044e5,10.2,80,0.002,0.028,0
0.018,0.002,0.002,0.482,0.482,61.98,61.981,-1.212e-5,0,1.212e-5,269.9777130656439,0.002,0.102,32.367,-106.83,77.4638939016873,0,0,0,90.01166961505233,0,2791,835,0.673,0.007,9.795,NaN,133,NaN,200.333,7.328,5.883e-4,1.046,0.589,0.337,0.12,0.024,NaN,NaN,NaN,NaN,NaN,NaN,NaN,NaN,2.164,90.01166961505233,15,1013,0.001225,340.389,0.007,3.071e5,10.2,80,0.002,0.033,0
0.02,0.004,0.004,0.614,0.614,69.96,69.96,-1.543e-5,0,1.543e-5,269.9777130656439,0.002,0.104,32.367,-106.83,74.14073868992853,0,0,0,90.01166961505233,0,2791,835,0.672,0.007,9.795,NaN,133,NaN,222.592,8.142,0.001,1.044,0.588,0.337,0.12,0.047,NaN,NaN,NaN,NaN,NaN,NaN,NaN,NaN,2.161,90.01166961505233,15,1013,0.001225,340.389,0.007,3.113e5,10.2,80,0.002,0.036,0
0.022,0.005,0.005,0.762,0.762,77.94,77.94,-1.916e-5,0,1.916e-5,269.9777130656439,0.002,0.108,32.367,-106.83,70.53110458060435,0,0,0,90.01166961505233,0,2791,835,0.672,0.007,9.795,NaN,133,NaN,244.851,8.957,0.002,1.042,0.585,0.337,0.12,0.082,NaN,NaN,NaN,NaN,NaN,NaN,NaN,NaN,2.159,90.01166961505233,15,1013,0.001225,340.389,0.007,3.172e5,10.2,80,0.002,0.042,0
0.024,0.007,0.007,0.925,0.925,85.921,85.921,-2.332e-5,0,2.332e-5,269.9777130656439,0.002,0.113,32.367,-106.83,66.74958313274091,0,0,0,90.01166961505233,0,2791,835,0.672,0.007,9.795,NaN,133,NaN,267.111,9.772,0.004,1.039,0.582,0.337,0.12,0.133,NaN,NaN,NaN,NaN,NaN,NaN,NaN,NaN,2.156,90.01166961505233,15,1013,0.001225,340.389,0.007,3.251e5,10.2,80,0.002,0.044,0
0.026,0.009,0.009,1.105,1.105,93.902,93.902,-2.793e-5,0,2.793e-5,269.9777130656439,0.002,0.119,32.367,-106.83,62.796174346338226,0,0,0,90.01166961505233,0,2790,834,0.672,0.007,9.795,NaN,133,NaN,289.37,10.587,0.006,1.035,0.578,0.337,0.12,0.2,NaN,NaN,NaN,NaN,NaN,NaN,NaN,NaN,2.154,90.01166961505233,15,1013,0.001225,340.389,0.007,3.354e5,10.2,80,0.002,0.045,0
0.028,0.011,0.011,1.301,1.301,101.884,101.884,-3.301e-5,0,3.301e-5,269.9777130656439,0.003,0.128,32.367,-106.83,58.78546978042247,0,0,0,90.01166961505233,0,2790,834,0.672,0.007,9.795,NaN,133,NaN,311.629,11.402,0.009,1.03,0.573,0.337,0.12,0.284,NaN,NaN,NaN,NaN,NaN,NaN,NaN,NaN,2.151,90.01166961505233,15,1013,0.001225,340.389,0.007,3.483e5,10.2,80,0.002,0.049,0
0.03,0.014,0.014,1.505,1.505,102.384,102.384,-3.861e-5,0,3.861e-5,269.9777130656439,0.003,0.139,32.367,-106.83,54.94665255304594,0,0,0,90.01166961505233,0,2790,834,0.672,0.007,9.795,NaN,132.9,NaN,312.99,11.453,0.013,1.025,0.568,0.337,0.12,0.377,NaN,NaN,NaN,NaN,NaN,NaN,NaN,NaN,2.149,90.01166961505233,15,1013,0.001225,340.389,0.008,3.635e5,10.2,80,0.002,0.05,0
0.032,0.017,0.017,1.711,1.711,102.883,102.884,-4.477e-5,0,4.477e-5,269.9777130656439,0.003,0.151,32.367,-106.83,51.394314223234844,0,0,0,90.01166961505233,0,2790,834,0.672,0.007,9.795,NaN,132.9,NaN,314.35,11.504,0.018,1.019,0.562,0.337,0.12,0.473,NaN,NaN,NaN,NaN,NaN,NaN,NaN,NaN,2.147,90.01166961505233,15,1013,0.001225,340.389,0.008,3.802e5,10.2,80,0.002,0.053,0
0.034,0.021,0.021,1.917,1.917,103.383,103.383,-5.153e-5,0,5.153e-5,269.9777130656439,0.004,0,32.367,-106.83,48.128454790989146,0,0,0,90.01166961505233,0,2789,833,0.672,0.007,9.795,NaN,132.9,NaN,315.711,11.555,0.023,1.013,0.556,0.337,0.12,0.566,NaN,NaN,NaN,NaN,NaN,NaN,NaN,NaN,2.144,90.01166961505233,15,1013,0.001225,340.389,0.008,3.984e5,10.2,80,0.002,0.055,0
0.036,0.025,0.025,2.124,2.124,103.882,103.882,-5.861e-5,0,5.861e-5,269.9777130656439,0.004,0,32.367,-106.83,45.206370035821955,0,0,0,90.01166961505233,0,2789,833,0.672,0.007,9.795,NaN,132.9,NaN,317.072,11.607,0.029,1.008,0.551,0.337,0.12,0.654,NaN,NaN,NaN,NaN,NaN,NaN,NaN,NaN,2.142,90.01166961505233,15,1013,0.001225,340.389,0.009,4.179e5,10.2,80,0.002,0.056,0
0.038,0.029,0.029,2.332,2.332,104.381,104.381,-6.568e-5,0,6.568e-5,269.9777130656439,0.004,0,32.367,-106.83,42.456172619194,0,0,0,90.01166961505233,0,2789,833,0.672,0.007,9.795,NaN,132.9,NaN,318.432,11.658,0.037,1.002,0.545,0.337,0.12,0.735,NaN,NaN,NaN,NaN,NaN,NaN,NaN,NaN,2.139,90.01166961505233,15,1013,0.001225,340.389,0.009,4.385e5,10.2,80,0.002,0.057,0
0.04,0.034,0.034,2.542,2.542,104.88,104.88,-7.276e-5,0,7.276e-5,269.9777130656439,0.004,0,32.367,-106.83,39.99245410013146,0,0,0,90.01166961505233,0,2787.9999999999995,832,0.671,0.007,9.795,NaN,132.9,NaN,319.793,11.709,0.044,0.996,0.539,0.337,0.12,0.809,NaN,NaN,NaN,NaN,NaN,NaN,NaN,NaN,2.137,90.01166961505233,15,1013,0.001225,340.389,0.01,4.601e5,10.2,80,0.002,0.058,0
0.042,0.039,0.039,2.752,2.752,105.379,105.379,-7.984e-5,0,7.984e-5,269.9777130656439,0.004,0,32.367,-106.83,37.757918699121255,0,0,0,90.01166961505233,0,2787.9999999999995,832,0.671,0.007,9.795,NaN,132.9,NaN,321.154,11.76,0.053,0.991,0.534,0.337,0.12,0.875,NaN,NaN,NaN,NaN,NaN,NaN,NaN,NaN,2.134,90.01166961505233,15,1013,0.001225,340.389,0.01,4.826e5,10.2,80,0.002,0.059,0
0.044,0.045,0.045,2.963,2.963,105.877,105.877,-8.692e-5,0,8.692e-5,269.9777130656439,0.004,0,32.367,-106.83,35.695270636650285,0,0,0,90.01166961505233,0,2787.9999999999995,832,0.671,0.007,9.795,NaN,132.9,NaN,322.514,11.811,0.062,0.985,0.528,0.337,0.12,0.933,NaN,NaN,NaN,NaN,NaN,NaN,NaN,NaN,2.132,90.01166961505233,15,1013,0.001225,340.389,0.011,5.059e5,10.2,80,0.002,0.06,0
0.046,0.051,0.051,3.175,3.175,106.376,106.376,-9.4e-5,0,9.4e-5,269.9777130656439,0.004,0,32.367,-106.83,33.804509912718565,0,0,0,90.01166961505233,0,2787,831,0.671,0.007,9.795,NaN,132.9,NaN,323.875,11.863,0.071,0.98,0.523,0.337,0.12,0.983,NaN,NaN,NaN,NaN,NaN,NaN,NaN,NaN,2.13,90.01166961505233,15,1013,0.001225,340.389,0.011,5.299e5,10.2,80,0.002,0.061,0
0.048,0.058,0.058,3.389,3.389,106.874,106.874,-1.011e-4,0,1.011e-4,269.9777130656439,0.004,0,32.367,-106.83,32.0856365273261,0,0,0,90.01166961505233,0,2787,831,0.671,0.007,9.795,NaN,132.9,NaN,325.235,11.914,0.081,0.975,0.518,0.337,0.12,1.026,NaN,NaN,NaN,NaN,NaN,NaN,NaN,NaN,2.127,90.01166961505233,15,1013,0.001225,340.389,0.012,5.545e5,10.2,80,0.002,0.062,0
0.05,0.065,0.065,3.603,3.603,107.373,107.373,-1.082e-4,0,1.082e-4,269.9777130656439,0.004,0,32.367,-106.83,30.4813547009598,0,0,0,90.01166961505233,0,2787,831,0.671,0.007,9.795,NaN,132.9,NaN,326.596,11.965,0.092,0.97,0.513,0.337,0.12,1.063,NaN,NaN,NaN,NaN,NaN,NaN,NaN,NaN,2.125,90.01166961505233,15,1013,0.001225,340.389,0.012,5.797e5,10.2,80,0.002,0.063,0
0.052,0.072,0.072,3.818,3.818,107.871,107.871,-1.152e-4,0,1.152e-4,269.9777130656439,0.004,0,32.367,-106.83,29.048960213132737,0,0,0,90.01166961505233,0,2786,829.9999999999999,0.671,0.007,9.795,NaN,132.9,NaN,327.957,12.016,0.104,0.966,0.509,0.337,0.12,1.093,NaN,NaN,NaN,NaN,NaN,NaN,NaN,NaN,2.122,90.01166961505233,15,1013,0.001225,340.389,0.013,6.054e5,10.2,80,0.002,0.066,0
0.054,0.08,0.08,4.034,4.034,108.369,108.369,-1.223e-4,0,1.223e-4,269.9777130656439,0.004,0,32.367,-106.83,27.67386150481876,0,0,0,90.01166961505233,0,2786,829.9999999999999,0.671,0.007,9.795,NaN,132.9,NaN,329.317,12.068,0.115,0.961,0.504,0.337,0.12,1.119,NaN,NaN,NaN,NaN,NaN,NaN,NaN,NaN,2.119,90.01166961505233,14.999000000000024,1013,0.001225,340.389,0.013,6.317e5,10.2,80,0.002,0.067,0
0.056,0.088,0.088,4.252,4.252,108.867,108.867,-1.294e-4,0,1.294e-4,269.9777130656439,0.004,0,32.367,-106.83,26.413354355530952,0,0,0,90.01166961505233,0,2786,829.9999999999999,0.67,0.007,9.795,NaN,132.8,NaN,330.678,12.119,0.128,0.957,0.5,0.337,0.12,1.14,NaN,NaN,NaN,NaN,NaN,NaN,NaN,NaN,2.117,90.01166961505233,14.999000000000024,1013,0.001225,340.389,0.014,6.583e5,10.2,80,0.002,0.068,0
0.058,0.097,0.097,4.47,4.47,109.365,109.365,-1.365e-4,0,1.365e-4,269.9777130656439,0.004,0,32.367,-106.83,25.267438765269304,0,0,0,90.01166961505233,0,2785,828.9999999999999,0.67,0.007,9.795,NaN,132.8,NaN,332.039,12.17,0.14,0.953,0.496,0.337,0.12,1.157,NaN,NaN,NaN,NaN,NaN,NaN,NaN,NaN,2.114,90.01166961505233,14.999000000000024,1013,0.001225,340.389,0.015,6.854e5,10.2,80,0.002,0.071,0
0.06,0.106,0.106,4.689,4.689,109.864,109.864,-1.435e-4,0,1.435e-4,269.9777130656439,0.004,0,32.367,-106.83,24.17881895452074,0,0,0,90.01166961505233,0,2785,828.9999999999999,0.67,0.007,9.795,NaN,132.8,NaN,333.399,12.222,0.154,0.949,0.492,0.337,0.12,1.171,NaN,NaN,NaN,NaN,NaN,NaN,NaN,NaN,2.111,90.01166961505233,14.999000000000024,1013,0.001225,340.388,0.015,7.129e5,10.2,80,0.002,0.072,0
0.062,0.116,0.116,4.909,4.909,110.362,110.362,-1.506e-4,0,1.506e-4,269.9777130656439,0.004,0,32.367,-106.83,23.20479070279834,0,0,0,90.01166961505233,0,2785,828.9999999999999,0.67,0.007,9.795,NaN,132.8,NaN,334.76,12.273,0.167,0.945,0.488,0.337,0.12,1.181,NaN,NaN,NaN,NaN,NaN,NaN,NaN,NaN,2.109,90.01166961505233,14.999000000000024,1013,0.001225,340.388,0.016,7.407e5,10.2,80,0.002,0.072,0
0.064,0.126,0.126,5.131,5.131,110.86,110.86,-1.577e-4,0,1.577e-4,269.9777130656439,0.004,0,32.367,-106.83,22.288058230589023,0,0,0,90.01166961505233,0,2783.9999999999995,827.9999999999999,0.67,0.007,9.795,NaN,132.8,NaN,336.121,12.324,0.182,0.941,0.484,0.337,0.12,1.189,NaN,NaN,NaN,NaN,NaN,NaN,NaN,NaN,2.106,90.01166961505233,14.999000000000024,1013,0.001225,340.388,0.016,7.688e5,10.2,80,0.002,0.073,0
0.066,0.136,0.136,5.353,5.353,111.358,111.358,-1.648e-4,0,1.648e-4,269.9777130656439,0.004,0,32.367,-106.83,21.428621537892788,0,0,0,90.01166961505233,0,2783.9999999999995,827.9999999999999,0.67,0.007,9.795,NaN,132.8,NaN,337.481,12.376,0.196,0.938,0.481,0.337,0.12,1.195,NaN,NaN,NaN,NaN,NaN,NaN,NaN,NaN,2.104,90.01166961505233,14.999000000000024,1013,0.001225,340.388,0.017,7.973e5,10.2,80,0.002,0.074,0
0.068,0.147,0.147,5.576,5.576,111.856,111.856,-1.719e-4,0,1.719e-4,269.9777130656439,0.004,0,32.367,-106.83,20.626480624709636,0,0,0,90.01166961505233,0,2783.9999999999995,827.9999999999999,0.67,0.007,9.795,NaN,132.8,NaN,338.842,12.427,0.211,0.935,0.477,0.337,0.12,1.198,NaN,NaN,NaN,NaN,NaN,NaN,NaN,NaN,2.101,90.01166961505233,14.999000000000024,1013,0.001225,340.388,0.018,8.26e5,10.2,80,0.002,0.075,0
0.07,0.159,0.159,5.8,5.8,112.353,112.353,-1.789e-4,0,1.789e-4,269.9777130656439,0.004,0,32.367,-106.83,19.881635491039564,0,0,0,90.01166961505233,0,2783,826.9999999999999,0.669,0.007,9.795,NaN,132.8,NaN,340.203,12.479,0.227,0.931,0.474,0.337,0.12,1.2,NaN,NaN,NaN,NaN,NaN,NaN,NaN,NaN,2.098,90.01166961505233,14.999000000000024,1013,0.001225,340.388,0.018,8.551e5,10.2,80,0.002,0.076,0
0.072,0.17,0.17,6.025,6.025,112.851,112.851,-1.86e-4,0,1.86e-4,269.9777130656439,0.004,0,32.367,-106.83,19.136790357369495,0,0,0,90.01166961505233,0,2783,826.9999999999999,0.669,0.007,9.795,NaN,132.8,NaN,341.563,12.53,0.243,0.928,0.471,0.337,0.12,1.2,NaN,NaN,NaN,NaN,NaN,NaN,NaN,NaN,2.096,90.01166961505233,14.999000000000024,1013,0.001225,340.388,0.019,8.844e5,10.2,80,0.002,0.077,0
0.074,0.183,0.183,6.252,6.252,113.349,113.349,-1.931e-4,0,1.931e-4,269.9777130656439,0.004,0,32.367,-106.83,18.50653678272559,0,0,0,90.01166961505233,0,2783,826.9999999999999,0.669,0.007,9.795,NaN,132.8,NaN,342.924,12.581,0.259,0.925,0.468,0.337,0.12,1.2,NaN,NaN,NaN,NaN,NaN,NaN,NaN,NaN,2.093,90.01166961505233,14.999000000000024,1013,0.001225,340.388,0.019,9.14e5,10.2,80,0.002,0.079,0
0.076,0.196,0.196,6.479,6.479,113.847,113.847,-2.002e-4,0,2.002e-4,269.9777130656439,0.004,0,32.367,-106.83,17.876283208081684,0,0,0,90.01166961505233,0,2782,825.9999999999999,0.669,0.007,9.795,NaN,132.8,NaN,344.284,12.633,0.276,0.922,0.465,0.337,0.12,1.198,NaN,NaN,NaN,NaN,NaN,NaN,NaN,NaN,2.09,90.01166961505233,14.999000000000024,1013,0.001225,340.388,0.02,9.438e5,10.2,80,0.002,0.081,0
0.078,0.209,0.209,6.707,6.707,114.345,114.345,-2.072e-4,0,2.072e-4,269.9777130656439,0.004,0,32.367,-106.83,17.24602963343778,0,0,0,90.01166961505233,0,2782,825.9999999999999,0.669,0.007,9.795,NaN,132.8,NaN,345.645,12.684,0.293,0.919,0.462,0.337,0.12,1.195,NaN,NaN,NaN,NaN,NaN,NaN,NaN,NaN,2.088,90.01166961505233,14.999000000000024,1013,0.001225,340.388,0.021,9.738e5,10.2,80,0.002,0.084,0
0.08,0.222,0.222,6.936,6.936,114.842,114.842,-2.143e-4,0,2.143e-4,269.9777130656439,0.004,0,32.367,-106.83,16.730367617820036,0,0,0,90.01166961505233,0,2782,825.9999999999999,0.669,0.007,9.795,NaN,132.8,NaN,347.006,12.736,0.31,0.916,0.459,0.337,0.12,1.191,NaN,NaN,NaN,NaN,NaN,NaN,NaN,NaN,2.085,90.01166961505233,14.999000000000024,1013,0.001225,340.388,0.021,1.004e6,10.2,80,0.002,0.085,0
0.082,0.236,0.236,7.166,7.166,115.34,115.34,-2.214e-4,0,2.214e-4,269.9777130656439,0.004,0,32.367,-106.83,16.157409822689214,0,0,0,90.01166961505233,0,2781,824.9999999999999,0.669,0.007,9.795,NaN,132.8,NaN,348.366,12.787,0.328,0.914,0.456,0.337,0.12,1.186,NaN,NaN,NaN,NaN,NaN,NaN,NaN,NaN,2.083,90.01166961505233,14.998000000000047,1013,0.001225,340.388,0.022,1.035e6,10.2,80,0.002,0.087,0
0.084,0.251,0.251,7.398,7.398,115.838,115.838,-2.285e-4,0,2.285e-4,269.9777130656439,0.004,0,32.367,-106.83,15.699043586584557,0,0,0,90.01166961505233,0,2781,824.9999999999999,0.669,0.007,9.795,NaN,132.7,NaN,349.727,12.839,0.346,0.911,0.454,0.337,0.12,1.18,NaN,NaN,NaN,NaN,NaN,NaN,NaN,NaN,2.08,90.01166961505233,14.998000000000047,1013,0.001225,340.388,0.023,1.065e6,10.2,80,0.002,0.088,0
0.086,0.266,0.266,7.63,7.63,116.336,116.336,-2.356e-4,0,2.356e-4,269.9777130656439,0.004,0,32.367,-106.83,15.183381570966816,0,0,0,90.01166961505233,0,2781,824.9999999999999,0.668,0.007,9.795,NaN,132.7,NaN,351.088,12.89,0.364,0.908,0.451,0.337,0.12,1.173,NaN,NaN,NaN,NaN,NaN,NaN,NaN,NaN,2.077,90.01166961505233,14.998000000000047,1013,0.001225,340.388,0.023,1.096e6,10.2,80,0.001,0.09,0
0.087,0.274,0.274,7.746,7.746,116.585,116.585,-2.391e-4,0,2.391e-4,269.9777130656439,0.004,0,32.367,-106.83,14.954198452914486,0,0,0,90.01166961505233,0,2779.9999999999995,823.9999999999999,0.668,0.007,9.795,NaN,132.7,NaN,351.768,12.916,0.373,0.907,0.45,0.337,0.12,1.169,NaN,NaN,NaN,NaN,NaN,NaN,NaN,NaN,2.076,90.01166961505233,14.998000000000047,1013,0.001225,340.388,0.024,1.112e6,10.2,80,0.002,0.09,0
0.089,0.285,0.285,7.921,7.921,116.568,116.568,-2.444e-4,0,2.444e-4,269.9777130656439,0.004,0,32.367,-106.83,14.667719555349075,0,0,0,90.01166961505233,0,2779.9999999999995,823.9999999999999,0.668,0.007,9.795,NaN,132.7,NaN,351.701,12.915,0.387,0.905,0.448,0.337,0.12,1.163,NaN,NaN,NaN,NaN,NaN,NaN,NaN,NaN,2.074,90.01166961505233,14.998000000000047,1013,0.001225,340.388,0.024,1.135e6,10.2,80,0.002,0.091,0
0.091,0.302,0.302,8.154,8.154,116.545,116.545,-2.515e-4,0,2.515e-4,269.9777130656439,0.004,0,32.367,-106.83,14.209353319244416,0,0,0,90.01166961505233,0,2779.9999999999995,823.9999999999999,0.668,0.007,9.795,NaN,132.7,NaN,351.611,12.913,0.406,0.903,0.446,0.337,0.12,1.155,NaN,NaN,NaN,NaN,NaN,NaN,NaN,NaN,2.071,90.01166961505233,14.998000000000047,1013,0.001225,340.388,0.025,1.166e6,10.2,80,0.002,0.092,0
0.093,0.318,0.318,8.387,8.387,116.522,116.522,-2.586e-4,0,2.586e-4,269.9777130656439,0.004,0,32.367,-106.83,13.808282862652838,0,0,0,90.01166961505233,0,2779,822.9999999999999,0.668,0.007,9.795,NaN,132.7,NaN,351.521,12.911,0.425,0.901,0.443,0.337,0.12,1.146,NaN,NaN,NaN,NaN,NaN,NaN,NaN,NaN,2.069,90.01166961505233,14.998000000000047,1013,0.001225,340.388,0.025,1.198e6,10.2,80,0.002,0.093,0
0.095,0.335,0.335,8.62,8.62,116.498,116.498,-2.656e-4,0,2.656e-4,269.9777130656439,0.004,0,32.367,-106.83,13.464508185574346,0,0,0,90.01166961505233,0,2779,822.9999999999999,0.668,0.007,9.795,NaN,132.7,NaN,351.431,12.91,0.444,0.899,0.441,0.337,0.12,1.138,NaN,NaN,NaN,NaN,NaN,NaN,NaN,NaN,2.066,90.01166961505233,14.998000000000047,1013,0.001225,340.388,0.026,1.229e6,10.2,80,0.002,0.094,0
0.097,0.353,0.353,8.853,8.853,116.475,116.475,-2.727e-4,0,2.727e-4,269.9777130656439,0.004,0,32.367,-106.83,13.120733508495853,0,0,0,90.01166961505233,0,2779,822.9999999999999,0.668,0.007,9.795,NaN,132.7,NaN,351.341,12.908,0.463,0.896,0.439,0.337,0.12,1.129,NaN,NaN,NaN,NaN,NaN,NaN,NaN,NaN,2.063,90.01166961505233,14.998000000000047,1013,0.001225,340.388,0.027,1.26e6,10.2,80,0.002,0.095,0
0.099,0.37,0.37,9.086,9.086,116.452,116.452,-2.798e-4,0,2.798e-4,269.9777130656439,0.004,0,32.367,-106.83,12.776958831417359,0,0,0,90.01166961505233,0,2778,821.9999999999999,0.668,0.007,9.795,NaN,132.7,NaN,351.252,12.906,0.483,0.894,0.437,0.337,0.12,1.121,NaN,NaN,NaN,NaN,NaN,NaN,NaN,NaN,2.061,90.01166961505233,14.998000000000047,1013,0.001225,340.387,0.027,1.292e6,10.2,80,0.002,0.096,0
0.101,0.389,0.389,9.319,9.319,116.428,116.428,-2.869e-4,0,2.869e-4,269.9777130656439,0.004,0,32.367,-106.83,12.433184154338864,0,0,0,90.01166961505233,0,2778,821.9999999999999,0.667,0.007,9.795,NaN,132.7,NaN,351.162,12.905,0.503,0.892,0.435,0.337,0.12,1.113,NaN,NaN,NaN,NaN,NaN,NaN,NaN,NaN,2.06,90.01166961505233,14.997000000000014,1013,0.001225,340.387,0.028,1.323e6,10.2,80,0.002,0.098,0
0.103,0.408,0.408,9.552,9.552,116.404,116.404,-2.939e-4,0,2.939e-4,269.9777130656439,0.004,0,32.367,-106.83,12.146705256773451,0,0,0,90.01166961505233,0,2778,821.9999999999999,0.667,0.007,9.795,NaN,132.7,NaN,351.072,12.903,0.524,0.89,0.433,0.337,0.12,1.105,NaN,NaN,NaN,NaN,NaN,NaN,NaN,NaN,2.063,90.01166961505233,14.997000000000014,1013,0.001225,340.387,0.029,1.355e6,10.2,80,0.002,0.101,0
0.105,0.427,0.427,9.785,9.785,116.38,116.38,-3.01e-4,0,3.01e-4,269.9777130656439,0.004,0,32.367,-106.83,11.917522138721122,0,0,0,90.01166961505233,0,2777,820.9999999999999,0.667,0.007,9.795,NaN,132.7,NaN,350.982,12.901,0.545,0.889,0.431,0.337,0.12,1.098,NaN,NaN,NaN,NaN,NaN,NaN,NaN,NaN,2.066,90.01166961505233,14.997000000000014,1013,0.001225,340.387,0.029,1.386e6,10.2,80,0.002,0.102,0
0.107,0.447,0.447,10.017,10.017,116.356,116.356,-3.081e-4,0,3.081e-4,269.9777130656439,0.004,0,32.367,-106.83,11.631043241155712,0,0,0,90.01166961505233,0,2777,820.9999999999999,0.667,0.007,9.795,NaN,132.7,NaN,350.892,12.9,0.566,0.887,0.429,0.337,0.12,1.09,NaN,NaN,NaN,NaN,NaN,NaN,NaN,NaN,2.069,90.01166961505233,14.997000000000014,1013,0.001225,340.387,0.03,1.418e6,10.2,80,0.002,0.104,0
0.109,0.467,0.467,10.25,10.25,116.332,116.332,-3.152e-4,0,3.152e-4,269.9777130656439,0.004,0,32.367,-106.83,11.401860123103383,0,0,0,90.01166961505233,0,2777,820.9999999999999,0.667,0.007,9.795,NaN,132.6,NaN,350.803,12.898,0.588,0.885,0.427,0.337,0.12,1.083,NaN,NaN,NaN,NaN,NaN,NaN,NaN,NaN,2.072,90.01166961505233,14.997000000000014,1013,0.001225,340.387,0.031,1.45e6,10.2,80,0.002,0.105,0
0.111,0.488,0.488,10.483,10.483,116.308,116.308,-3.223e-4,0,3.223e-4,269.9777130656439,0.004,0,32.367,-106.83,11.172677005051053,0,0,0,90.01166961505233,0,2775.9999999999995,819.9999999999999,0.667,0.007,9.795,NaN,132.6,NaN,350.713,12.896,0.61,0.883,0.426,0.337,0.12,1.076,NaN,NaN,NaN,NaN,NaN,NaN,NaN,NaN,2.075,90.01166961505233,14.997000000000014,1013,0.001225,340.387,0.031,1.482e6,10.2,80,0.002,0.105,0
0.113,0.509,0.509,10.715,10.715,116.284,116.284,-3.293e-4,0,3.293e-4,269.9777130656439,0.004,0,32.367,-106.83,10.943493886998723,0,0,0,90.01166961505233,0,2775.9999999999995,819.9999999999999,0.667,0.007,9.795,NaN,132.6,NaN,350.623,12.895,0.633,0.881,0.424,0.337,0.12,1.069,NaN,NaN,NaN,NaN,NaN,NaN,NaN,NaN,2.078,90.01166961505233,14.997000000000014,1013,0.001225,340.387,0.032,1.513e6,10.2,80,0.002,0.106,0
0.115,0.531,0.531,10.948,10.948,116.259,116.259,-3.364e-4,0,3.364e-4,269.9777130656439,0.004,0,32.367,-106.83,10.714310768946394,0,0,0,90.01166961505233,0,2775.9999999999995,819.9999999999999,0.666,0.007,9.795,NaN,132.6,NaN,350.533,12.893,0.655,0.88,0.422,0.337,0.12,1.063,NaN,NaN,NaN,NaN,NaN,NaN,NaN,NaN,2.081,90.01166961505233,14.997000000000014,1013,0.001225,340.387,0.033,1.545e6,10.2,80,0.002,0.107,0
0.117,0.553,0.553,11.18,11.18,116.234,116.234,-3.435e-4,0,3.435e-4,269.9777130656439,0.004,0,32.367,-106.83,10.542423430407148,0,0,0,90.01166961505233,0,2775,818.9999999999999,0.666,0.007,9.795,NaN,132.6,NaN,350.443,12.891,0.678,0.878,0.421,0.337,0.12,1.056,NaN,NaN,NaN,NaN,NaN,NaN,NaN,NaN,2.084,90.01166961505233,14.996000000000038,1013,0.001225,340.387,0.033,1.577e6,10.2,80,0.002,0.108,0
0.119,0.575,0.575,11.413,11.413,116.21,116.21,-3.506e-4,0,3.506e-4,269.9777130656439,0.004,0,32.367,-106.83,10.3705360918679,0,0,0,90.01166961505233,0,2775,818.9999999999999,0.666,0.007,9.795,NaN,132.6,NaN,350.354,12.89,0.702,0.877,0.419,0.337,0.12,1.05,NaN,NaN,NaN,NaN,NaN,NaN,NaN,NaN,2.087,90.01166961505233,14.996000000000038,1013,0.001225,340.387,0.034,1.609e6,10.2,80,0.002,0.109,0
0.121,0.599,0.599,11.645,11.645,116.185,116.185,-3.576e-4,0,3.576e-4,269.9777130656439,0.004,0,32.367,-106.83,10.14135297381557,0,0,0,90.01166961505233,0,2775,817.9999999999999,0.666,0.007,9.795,NaN,132.6,NaN,350.264,12.888,0.726,0.875,0.417,0.337,0.12,1.044,NaN,NaN,NaN,NaN,NaN,NaN,NaN,NaN,2.09,90.01166961505233,14.996000000000038,1013,0.001225,340.387,0.035,1.64e6,10.2,80,0.002,0.11,0
0.123,0.622,0.622,11.878,11.878,116.159,116.159,-3.647e-4,0,3.647e-4,269.9777130656439,0.004,0,32.367,-106.83,9.969465635276324,0,0,0,90.01166961505233,0,2774,817.9999999999999,0.666,0.007,9.795,NaN,132.6,NaN,350.174,12.886,0.751,0.874,0.417,0.338,0.12,1.039,NaN,NaN,NaN,NaN,NaN,NaN,NaN,NaN,2.093,90.01166961505233,14.996000000000038,1013,0.001225,340.386,0.035,1.672e6,10.2,80,0.002,0.111,0
0.125,0.646,0.646,12.11,12.11,116.134,116.134,-3.718e-4,0,3.718e-4,269.9777130656439,0.004,0,32.367,-106.83,9.797578296737077,0,0,0,90.01166961505233,0,2774,817.9999999999999,0.666,0.007,9.795,NaN,132.6,NaN,350.084,12.885,0.777,0.874,0.417,0.338,0.12,1.036,NaN,NaN,NaN,NaN,NaN,NaN,NaN,NaN,2.096,90.01166961505233,14.996000000000038,1013,0.001225,340.386,0.036,1.704e6,10.2,80,0.002,0.111,0
0.127,0.671,0.671,12.342,12.342,116.108,116.108,-3.789e-4,0,3.789e-4,269.9777130656439,0.004,0,32.367,-106.83,9.625690958197831,0,0,0,90.01166961505233,0,2773,816.9999999999999,0.666,0.007,9.795,NaN,132.6,NaN,349.994,12.883,0.803,0.874,0.417,0.338,0.12,1.032,NaN,NaN,NaN,NaN,NaN,NaN,NaN,NaN,2.099,90.01166961505233,14.996000000000038,1013,0.001225,340.386,0.037,1.736e6,10.2,80,0.002,0.113,0
0.129,0.695,0.695,12.574,12.574,116.082,116.082,-3.86e-4,0,3.86e-4,269.9777130656439,0.004,0,32.367,-106.83,9.453803619658583,0,0,0,90.01166961505233,0,2773,816.9999999999999,0.666,0.007,9.795,NaN,132.6,NaN,349.905,12.881,0.83,0.874,0.417,0.338,0.12,1.028,NaN,NaN,NaN,NaN,NaN,NaN,NaN,NaN,2.102,90.01166961505233,14.995000000000005,1013,0.001225,340.386,0.037,1.768e6,10.2,80,0.002,0.115,0
0.131,0.721,0.721,12.806,12.806,116.056,116.056,-3.93e-4,0,3.93e-4,269.9777130656439,0.004,0,32.367,-106.83,9.339212060632418,0,0,0,90.01166961505233,0,2773,816.9999999999999,0.665,0.007,9.795,NaN,132.6,NaN,349.815,12.88,0.857,0.875,0.417,0.338,0.12,1.025,NaN,NaN,NaN,NaN,NaN,NaN,NaN,NaN,2.105,90.01166961505233,14.995000000000005,1013,0.001225,340.386,0.038,1.799e6,10.2,80,0.002,0.117,0
0.133,0.747,0.747,13.038,13.038,116.029,116.029,-4.001e-4,0,4.001e-4,269.9777130656439,0.004,0,32.367,-106.83,9.167324722093172,0,0,0,90.01166961505233,0,2771.9999999999995,815.9999999999999,0.665,0.007,9.795,NaN,132.6,NaN,349.725,12.878,0.884,0.875,0.417,0.338,0.12,1.021,NaN,NaN,NaN,NaN,NaN,NaN,NaN,NaN,2.108,90.01166961505233,14.995000000000005,1013,0.001225,340.386,0.039,1.831e6,10.2,80,0.002,0.118,0
0.135,0.773,0.773,13.271,13.271,116.003,116.003,-4.072e-4,0,4.072e-4,269.9777130656439,0.004,0,32.367,-106.83,8.995437383553925,0,0,0,90.01166961505233,0,2771.9999999999995,815.9999999999999,0.665,0.007,9.795,NaN,132.5,NaN,349.635,12.876,0.912,0.875,0.417,0.338,0.12,1.018,NaN,NaN,NaN,NaN,NaN,NaN,NaN,NaN,2.111,90.01166961505233,14.995000000000005,1013,0.001225,340.386,0.039,1.863e6,10.2,80,0.002,0.119,0
0.137,0.8,0.8,13.502,13.502,115.976,115.976,-4.143e-4,0,4.143e-4,269.9777130656439,0.004,0,32.367,-106.83,8.88084582452776,0,0,0,90.01166961505233,0,2771.9999999999995,815.9999999999999,0.665,0.007,9.795,NaN,132.5,NaN,349.545,12.875,0.941,0.875,0.417,0.338,0.12,1.015,NaN,NaN,NaN,NaN,NaN,NaN,NaN,NaN,2.114,90.01166961505233,14.995000000000005,1013,0.001225,340.386,0.04,1.895e6,10.2,80,0.002,0.12,0
0.139,0.827,0.827,13.734,13.734,115.949,115.949,-4.213e-4,0,4.213e-4,269.9777130656439,0.004,0,32.367,-106.83,8.766254265501596,0,0,0,90.01166961505233,0,2771,814.9999999999999,0.665,0.007,9.795,NaN,132.5,NaN,349.456,12.873,0.97,0.875,0.417,0.338,0.12,1.011,NaN,NaN,NaN,NaN,NaN,NaN,NaN,NaN,2.117,90.01166961505233,14.995000000000005,1013,0.001225,340.386,0.041,1.927e6,10.2,80,0.002,0.121,0
0.141,0.855,0.855,13.966,13.966,115.922,115.922,-4.284e-4,0,4.284e-4,269.9777130656439,0.004,0,32.367,-106.83,8.594366926962348,0,0,0,90.01166961505233,0,2771,814.9999999999999,0.665,0.007,9.795,NaN,132.5,NaN,349.366,12.871,0.999,0.875,0.417,0.338,0.12,1.008,NaN,NaN,NaN,NaN,NaN,NaN,NaN,NaN,2.12,90.01166961505233,14.994000000000028,1013,0.001225,340.386,0.041,1.959e6,10.2,80,0.002,0.122,0
0.143,0.883,0.883,14.198,14.198,115.895,115.895,-4.355e-4,0,4.355e-4,269.9777130656439,0.004,0,32.367,-106.83,8.479775367936183,0,0,0,90.01166961505233,0,2771,814.9999999999999,0.665,0.007,9.795,NaN,132.5,NaN,349.276,12.87,1.029,0.875,0.417,0.338,0.12,1.006,NaN,NaN,NaN,NaN,NaN,NaN,NaN,NaN,2.123,90.01166961505233,14.994000000000028,1013,0.001225,340.385,0.042,1.99e6,10.2,80,0.002,0.123,0
0.145,0.911,0.911,14.43,14.43,115.868,115.868,-4.426e-4,0,4.426e-4,269.9777130656439,0.004,0,32.367,-106.83,8.365183808910018,0,0,0,90.01166961505233,0,2770,813.9999999999999,0.664,0.007,9.795,NaN,132.5,NaN,349.186,12.868,1.059,0.875,0.417,0.338,0.12,1.003,NaN,NaN,NaN,NaN,NaN,NaN,NaN,NaN,2.126,90.01166961505233,14.994000000000028,1013,0.001225,340.385,0.043,2.022e6,10.2,80,0.002,0.124,0
0.147,0.948,0.948,14.719,14.719,115.833,115.833,-4.514e-4,0,4.514e-4,269.9777130656439,0.004,0,32.367,-106.83,8.193296470370772,0,0,0,90.01166961505233,0,2770,813.9999999999999,0.664,0.007,9.795,NaN,132.5,NaN,349.074,12.866,1.098,0.875,0.417,0.338,0.12,0.999,NaN,NaN,NaN,NaN,NaN,NaN,NaN,NaN,2.129,90.01166961505233,14.994000000000028,1013,0.001225,340.385,0.044,2.062e6,10.2,80,0.002,0.125,0
0.149,0.978,0.978,14.951,14.951,115.802,115.802,-4.585e-4,0,4.585e-4,269.9777130656439,0.004,0,32.367,-106.83,8.078704911344607,0,0,0,90.01166961505233,0,2770,812.9999999999999,0.664,0.007,9.795,NaN,132.5,NaN,348.976,12.864,1.129,0.875,0.417,0.338,0.12,0.997,NaN,NaN,NaN,NaN,NaN,NaN,NaN,NaN,2.133,90.01166961505233,14.994000000000028,1013,0.001225,340.385,0.044,2.094e6,10.2,80,0.002,0.126,0
0.151,1.008,1.008,15.183,15.183,115.772,115.772,-4.656e-4,0,4.656e-4,269.9777130656439,0.004,0,32.367,-106.83,7.964113352318443,0,0,0,90.01166961505233,0,2769,812.9999999999999,0.664,0.007,9.795,NaN,132.5,NaN,348.877,12.862,1.16,0.875,0.417,0.338,0.12,0.994,NaN,NaN,NaN,NaN,NaN,NaN,NaN,NaN,2.131,90.01166961505233,14.992999999999995,1013,0.001225,340.385,0.045,2.126e6,10.2,80,0.002,0.126,0
0.153,1.038,1.038,15.414,15.414,115.741,115.741,-4.727e-4,0,4.727e-4,269.9777130656439,0.004,0,32.367,-106.83,7.849521793292278,0,0,0,90.01166961505233,0,2769,812.9999999999999,0.664,0.007,9.795,NaN,132.5,NaN,348.779,12.86,1.191,0.875,0.417,0.338,0.12,0.99,NaN,NaN,NaN,NaN,NaN,NaN,NaN,NaN,2.124,90.01166961505233,14.992999999999995,1013,0.001225,340.385,0.046,2.157e6,10.2,80,0.002,0.127,0
0.155,1.069,1.069,15.646,15.646,115.71,115.71,-4.797e-4,0,4.797e-4,269.9777130656439,0.004,0,32.367,-106.83,7.677634454753032,0,0,0,90.01166961505233,0,2767.9999999999995,812,0.664,0.007,9.795,NaN,132.5,NaN,348.681,12.858,1.222,0.875,0.417,0.338,0.12,0.987,NaN,NaN,NaN,NaN,NaN,NaN,NaN,NaN,2.117,90.01166961505233,14.992999999999995,1013,0.001225,340.385,0.046,2.189e6,10.2,80,0.002,0.128,0
0.157,1.101,1.101,15.877,15.877,115.679,115.679,-4.868e-4,0,4.868e-4,269.9777130656439,0.004,0,32.367,-106.83,7.563042895726867,0,0,0,90.01166961505233,0,2767.9999999999995,812,0.664,0.007,9.795,NaN,132.5,NaN,348.583,12.856,1.254,0.875,0.417,0.338,0.12,0.984,NaN,NaN,NaN,NaN,NaN,NaN,NaN,NaN,2.11,90.01166961505233,14.992999999999995,1013,0.001225,340.385,0.047,2.221e6,10.2,80,0.002,0.129,0
0.159,1.133,1.133,16.108,16.108,115.648,115.648,-4.939e-4,0,4.939e-4,269.9777130656439,0.004,0,32.367,-106.83,7.448451336700702,0,0,0,90.01166961505233,0,2767.9999999999995,812,0.663,0.007,9.795,NaN,132.4,NaN,348.484,12.854,1.286,0.875,0.417,0.338,0.12,0.981,NaN,NaN,NaN,NaN,NaN,NaN,NaN,NaN,2.103,90.01166961505233,14.992999999999995,1013,0.001225,340.384,0.048,2.252e6,10.2,80,0.002,0.129,0
0.161,1.165,1.165,16.34,16.34,115.616,115.616,-5.01e-4,0,5.01e-4,269.9777130656439,0.004,0,32.367,-106.83,7.276563998161455,0,0,0,90.01166961505233,0,2767,811,0.663,0.007,9.795,NaN,132.4,NaN,348.386,12.852,1.318,0.875,0.417,0.338,0.12,0.978,NaN,NaN,NaN,NaN,NaN,NaN,NaN,NaN,2.096,90.01166961505233,14.992000000000019,1013,0.001225,340.384,0.048,2.284e6,10.2,80,0.002,0.133,0
0.163,1.198,1.198,16.571,16.571,115.585,115.585,-5.08e-4,0,5.08e-4,269.9777130656439,0.004,0,32.367,-106.83,7.16197243913529,0,0,0,90.01166961505233,0,2767,811,0.663,0.007,9.795,NaN,132.4,NaN,348.288,12.85,1.351,0.875,0.417,0.338,0.12,0.976,NaN,NaN,NaN,NaN,NaN,NaN,NaN,NaN,2.089,90.01166961505233,14.992000000000019,1013,0.001225,340.384,0.049,2.316e6,10.2,80,0.002,0.134,0
0.165,1.232,1.232,16.802,16.802,115.553,115.553,-5.151e-4,0,5.151e-4,269.9777130656439,0.004,0,32.367,-106.83,7.047380880109126,0,0,0,90.01166961505233,0,2767,811,0.663,0.007,9.795,NaN,132.4,NaN,348.19,12.848,1.385,0.875,0.417,0.338,0.12,0.973,NaN,NaN,NaN,NaN,NaN,NaN,NaN,NaN,2.082,90.01166961505233,14.992000000000019,1013,0.001225,340.384,0.05,2.347e6,10.2,80,0.002,0.136,0
0.167,1.265,1.265,17.033,17.033,115.521,115.521,-5.222e-4,0,5.222e-4,269.9777130656439,0.004,0,32.367,-106.83,6.932789321082961,0,0,0,90.01166961505233,0,2766,810,0.663,0.007,9.795,NaN,132.4,NaN,348.091,12.846,1.418,0.875,0.417,0.338,0.12,0.97,NaN,NaN,NaN,NaN,NaN,NaN,NaN,NaN,2.075,90.01166961505233,14.992000000000019,1013,0.001225,340.384,0.05,2.379e6,10.2,80,0.002,0.137,0
0.169,1.3,1.3,17.264,17.264,115.489,115.489,-5.293e-4,0,5.293e-4,269.9777130656439,0.004,0,32.367,-106.83,6.818197762056796,0,0,0,90.01166961505233,0,2766,810,0.663,0.007,9.795,NaN,132.4,NaN,347.993,12.844,1.453,0.875,0.417,0.338,0.12,0.968,NaN,NaN,NaN,NaN,NaN,NaN,NaN,NaN,2.068,90.01166961505233,14.992000000000019,1013,0.001225,340.384,0.051,2.411e6,10.2,80,0.002,0.142,0
0.171,1.334,1.334,17.495,17.495,115.457,115.457,-5.364e-4,0,5.364e-4,269.9777130656439,0.004,0,32.367,-106.83,6.703606203030632,0,0,0,90.01166961505233,0,2766,810,0.663,0.007,9.795,NaN,132.4,NaN,347.895,12.842,1.487,0.875,0.417,0.338,0.12,0.965,NaN,NaN,NaN,NaN,NaN,NaN,NaN,NaN,2.061,90.01166961505233,14.991000000000042,1013,0.001225,340.384,0.052,2.442e6,10.2,80,0.002,0.144,0
0.173,1.37,1.37,17.726,17.726,115.424,115.424,-5.434e-4,0,5.434e-4,269.9777130656439,0.004,0,32.367,-106.83,6.589014644004467,0,0,0,90.01166961505233,0,2765,809,0.662,0.007,9.795,NaN,132.4,NaN,347.796,12.84,1.522,0.875,0.417,0.338,0.12,0.963,NaN,NaN,NaN,NaN,NaN,NaN,NaN,NaN,2.054,90.01166961505233,14.991000000000042,1013,0.001225,340.384,0.052,2.474e6,10.2,80,0.002,0.144,0
0.175,1.405,1.405,17.957,17.957,115.392,115.392,-5.505e-4,0,5.505e-4,269.9777130656439,0.004,0,32.367,-106.83,6.474423084978302,0,0,0,90.01166961505233,0,2765,809,0.662,0.007,9.795,NaN,132.4,NaN,347.698,12.838,1.558,0.875,0.417,0.338,0.12,0.961,NaN,NaN,NaN,NaN,NaN,NaN,NaN,NaN,2.048,90.01166961505233,14.991000000000042,1013,0.001225,340.383,0.053,2.506e6,10.2,80,0.002,0.145,0
0.177,1.442,1.442,18.187,18.187,115.359,115.359,-5.576e-4,0,5.576e-4,269.9777130656439,0.004,0,32.367,-106.83,6.41712730546522,0,0,0,90.01166961505233,0,2765,809,0.662,0.007,9.795,NaN,132.4,NaN,347.6,12.836,1.594,0.875,0.417,0.338,0.12,0.958,NaN,NaN,NaN,NaN,NaN,NaN,NaN,NaN,2.041,90.01166961505233,14.991000000000042,1013,0.001225,340.383,0.054,2.537e6,10.2,80,0.002,0.146,0
0.179,1.478,1.478,18.418,18.418,115.326,115.326,-5.647e-4,0,5.647e-4,269.9777130656439,0.004,0,32.367,-106.83,6.302535746439055,0,0,0,90.01166961505233,0,2763.9999999999995,808,0.662,0.007,9.795,NaN,132.4,NaN,347.502,12.834,1.63,0.875,0.417,0.338,0.12,0.956,NaN,NaN,NaN,NaN,NaN,NaN,NaN,NaN,2.034,90.01166961505233,14.990000000000009,1013,0.001225,340.383,0.054,2.569e6,10.2,80,0.002,0.149,0
0.181,1.515,1.515,18.649,18.649,115.293,115.293,-5.717e-4,0,5.717e-4,269.9777130656439,0.004,0,32.367,-106.83,6.18794418741289,0,0,0,90.01166961505233,0,2763.9999999999995,808,0.662,0.007,9.795,NaN,132.4,NaN,347.403,12.832,1.667,0.875,0.417,0.338,0.12,0.954,NaN,NaN,NaN,NaN,NaN,NaN,NaN,NaN,2.027,90.01166961505233,14.990000000000009,1013,0.001225,340.383,0.055,2.601e6,10.2,80,0.002,0.154,0
0.183,1.553,1.553,18.879,18.879,115.26,115.26,-5.788e-4,0,5.788e-4,269.9777130656439,0.004,0,32.367,-106.83,6.073352628386726,0,0,0,90.01166961505233,0,2763.9999999999995,808,0.662,0.007,9.795,NaN,132.4,NaN,347.305,12.83,1.704,0.875,0.417,0.338,0.12,0.952,NaN,NaN,NaN,NaN,NaN,NaN,NaN,NaN,2.02,90.01166961505233,14.990000000000009,1013,0.001225,340.383,0.056,2.632e6,10.2,80,0.002,0.155,0
0.185,1.591,1.591,19.11,19.11,115.227,115.227,-5.859e-4,0,5.859e-4,269.9777130656439,0.004,0,32.367,-106.83,6.016056848873643,0,0,0,90.01166961505233,0,2763,807,0.662,0.007,9.795,NaN,132.29999999999998,NaN,347.207,12.828,1.742,0.875,0.417,0.338,0.12,0.95,NaN,NaN,NaN,NaN,NaN,NaN,NaN,NaN,2.013,90.01166961505233,14.990000000000009,1013,0.001225,340.383,0.056,2.664e6,10.2,80,0.002,0.156,0
0.187,1.629,1.629,19.34,19.34,115.193,115.193,-5.93e-4,0,5.93e-4,269.9777130656439,0.004,0,32.367,-106.83,5.901465289847478,0,0,0,90.01166961505233,0,2763,807,0.661,0.007,9.795,NaN,132.29999999999998,NaN,347.109,12.826,1.78,0.875,0.417,0.338,0.12,0.948,NaN,NaN,NaN,NaN,NaN,NaN,NaN,NaN,2.006,90.01166961505233,14.989000000000033,1013,0.001225,340.382,0.057,2.696e6,10.2,80,0.002,0.157,0
0.189,1.668,1.668,19.571,19.571,115.159,115.159,-6.001e-4,0,6.001e-4,269.9777130656439,0.004,0,32.367,-106.83,5.844169510334396,0,0,0,90.01166961505233,0,2763,806,0.661,0.007,9.795,NaN,132.29999999999998,NaN,347.01,12.824,1.818,0.875,0.417,0.338,0.12,0.946,NaN,NaN,NaN,NaN,NaN,NaN,NaN,NaN,1.999,90.01166961505233,14.989000000000033,1013,0.001225,340.382,0.058,2.727e6,10.2,80,0.002,0.158,0
0.191,1.707,1.707,19.801,19.801,115.125,115.125,-6.071e-4,0,6.071e-4,269.9777130656439,0.004,0,32.367,-106.83,5.729577951308232,0,0,0,90.01166961505233,0,2762,806,0.661,0.007,9.795,NaN,132.29999999999998,NaN,346.912,12.822,1.857,0.875,0.417,0.338,0.12,0.945,NaN,NaN,NaN,NaN,NaN,NaN,NaN,NaN,1.992,90.01166961505233,14.989000000000033,1013,0.001225,340.382,0.058,2.759e6,10.2,80,0.002,0.158,0
0.193,1.747,1.747,20.031,20.031,115.091,115.091,-6.142e-4,0,6.142e-4,269.9777130656439,0.004,0,32.367,-106.83,5.67228217179515,0,0,0,90.01166961505233,0,2762,806,0.661,0.007,9.795,NaN,132.29999999999998,NaN,346.814,12.82,1.897,0.875,0.417,0.338,0.12,0.943,NaN,NaN,NaN,NaN,NaN,NaN,NaN,NaN,1.985,90.01166961505233,14.989000000000033,1013,0.001225,340.382,0.059,2.791e6,10.2,80,0.002,0.159,0
0.195,1.788,1.788,20.261,20.261,115.057,115.057,-6.213e-4,0,6.213e-4,269.9777130656439,0.004,0,32.367,-106.83,5.557690612768986,0,0,0,90.01166961505233,0,2761,805,0.661,0.007,9.795,NaN,132.29999999999998,NaN,346.715,12.818,1.937,0.875,0.417,0.338,0.12,0.941,NaN,NaN,NaN,NaN,NaN,NaN,NaN,NaN,1.978,90.01166961505233,14.988,1013,0.001225,340.382,0.06,2.822e6,10.2,80,0.002,0.16,0
0.197,1.828,1.828,20.491,20.491,115.023,115.023,-6.284e-4,0,6.284e-4,269.9777130656439,0.004,0,32.367,-106.83,5.500394833255903,0,0,0,90.01166961505233,0,2761,805,0.661,0.007,9.795,NaN,132.29999999999998,NaN,346.617,12.816,1.977,0.875,0.417,0.338,0.12,0.94,NaN,NaN,NaN,NaN,NaN,NaN,NaN,NaN,1.971,90.01166961505233,14.988,1013,0.001225,340.382,0.06,2.854e6,10.2,80,0.002,0.161,0
0.199,1.87,1.87,20.721,20.721,114.988,114.988,-6.354e-4,0,6.354e-4,269.9777130656439,0.004,0,32.367,-106.83,5.385803274229739,0,0,0,90.01166961505233,0,2761,805,0.661,0.007,9.795,NaN,132.29999999999998,NaN,346.519,12.814,2.018,0.875,0.417,0.338,0.12,0.938,NaN,NaN,NaN,NaN,NaN,NaN,NaN,NaN,1.964,90.01166961505233,14.988,1013,0.001225,340.382,0.061,2.886e6,10.2,80,0.002,0.162,0
0.201,1.911,1.911,20.951,20.951,114.954,114.954,-6.425e-4,0,6.425e-4,269.9777130656439,0.004,0,32.367,-106.83,5.328507494716656,0,0,0,90.01166961505233,0,2759.9999999999995,804,0.66,0.007,9.795,NaN,132.29999999999998,NaN,346.421,12.812,2.059,0.875,0.417,0.338,0.12,0.937,NaN,NaN,NaN,NaN,NaN,NaN,NaN,NaN,1.958,90.01166961505233,14.988,1013,0.001225,340.381,0.062,2.917e6,10.2,80,0.002,0.162,0
0.203,1.953,1.953,21.181,21.181,114.919,114.919,-6.496e-4,0,6.496e-4,269.9777130656439,0.004,0,32.367,-106.83,5.271211715203574,0,0,0,90.01166961505233,0,2759.9999999999995,804,0.66,0.007,9.795,NaN,132.29999999999998,NaN,346.322,12.81,2.101,0.875,0.417,0.338,0.121,0.935,NaN,NaN,NaN,NaN,NaN,NaN,NaN,NaN,1.953,90.01166961505233,14.987000000000023,1013,0.001225,340.381,0.062,2.949e6,10.2,80,0.002,0.164,0
0.205,1.996,1.996,21.411,21.411,114.884,114.884,-6.567e-4,0,6.567e-4,269.9777130656439,0.004,0,32.367,-106.83,5.213915935690491,0,0,0,90.01166961505233,0,2759.9999999999995,804,0.66,0.007,9.795,NaN,132.29999999999998,NaN,346.224,12.808,2.143,0.875,0.417,0.338,0.121,0.934,NaN,NaN,NaN,NaN,NaN,NaN,NaN,NaN,1.947,90.01166961505233,14.987000000000023,1013,0.001225,340.381,0.063,2.981e6,10.2,80,0.001,0.167,0
0.206,2.017,2.017,21.526,21.526,114.866,114.866,-6.602e-4,0,6.602e-4,269.9777130656439,0.004,0,32.367,-106.83,5.156620156177409,0,0,0,90.01166961505233,0,2759.9999999999995,804,0.66,0.007,9.795,NaN,132.29999999999998,NaN,346.175,12.807,2.164,0.875,0.417,0.338,0.121,0.933,NaN,NaN,NaN,NaN,NaN,NaN,NaN,NaN,1.945,90.01166961505233,14.987000000000023,1013,0.001225,340.381,0.063,2.996e6,10.2,80,0.002,0.169,0
0.208,2.05,2.05,21.698,21.698,114.821,114.821,-6.655e-4,0,6.655e-4,269.9777130656439,0.004,0,32.367,-106.83,5.099324376664327,0,0,0,90.01166961505233,0,2759,803,0.66,0.007,9.795,NaN,132.29999999999998,NaN,346.051,12.804,2.196,0.875,0.417,0.338,0.121,0.932,NaN,NaN,NaN,NaN,NaN,NaN,NaN,NaN,1.941,90.01166961505233,14.987000000000023,1013,0.001225,340.381,0.064,3.02e6,10.2,80,0.002,0.17,0
0.21,2.093,2.093,21.928,21.928,114.762,114.762,-6.726e-4,0,6.726e-4,269.9777130656439,0.004,0,32.367,-106.83,5.042028597151244,0,0,0,90.01166961505233,0,2759,803,0.66,0.007,9.795,NaN,132.20000000000002,NaN,345.886,12.799,2.239,0.875,0.417,0.338,0.121,0.931,NaN,NaN,NaN,NaN,NaN,NaN,NaN,NaN,1.935,90.01166961505233,14.986000000000047,1013,0.001225,340.381,0.065,3.052e6,10.2,80,0.002,0.171,0
0.212,2.138,2.138,22.157,22.157,114.702,114.702,-6.797e-4,0,6.797e-4,269.9777130656439,0.004,0,32.367,-106.83,4.984732817638162,0,0,0,90.01166961505233,0,2759,803,0.66,0.007,9.795,NaN,132.20000000000002,NaN,345.722,12.795,2.283,0.875,0.417,0.338,0.121,0.93,NaN,NaN,NaN,NaN,NaN,NaN,NaN,NaN,1.93,90.01166961505233,14.986000000000047,1013,0.001225,340.38,0.065,3.083e6,10.2,80,0.002,0.171,0
0.214,2.182,2.182,22.386,22.386,114.641,114.641,-6.868e-4,0,6.868e-4,269.9777130656439,0.004,0,32.367,-106.83,4.927437038125079,0,0,0,90.01166961505233,0,2758,802,0.66,0.007,9.795,NaN,132.20000000000002,NaN,345.557,12.79,2.327,0.875,0.417,0.338,0.121,0.928,NaN,NaN,NaN,NaN,NaN,NaN,NaN,NaN,1.924,90.01166961505233,14.986000000000047,1013,0.001225,340.38,0.066,3.115e6,10.2,80,0.002,0.172,0
0.216,2.227,2.227,22.616,22.616,114.581,114.581,-6.938e-4,0,6.938e-4,269.9777130656439,0.004,0,32.367,-106.83,4.812845479098916,0,0,0,90.01166961505233,0,2758,802,0.66,0.007,9.795,NaN,132.20000000000002,NaN,345.392,12.786,2.371,0.875,0.417,0.338,0.121,0.927,NaN,NaN,NaN,NaN,NaN,NaN,NaN,NaN,1.919,90.01166961505233,14.986000000000047,1013,0.001225,340.38,0.067,3.147e6,10.2,80,0.002,0.173,0
0.218,2.273,2.273,22.845,22.845,114.521,114.521,-7.009e-4,0,7.009e-4,269.9777130656439,0.004,0,32.367,-106.83,4.755549699585833,0,0,0,90.01166961505233,0,2758,802,0.659,0.007,9.795,NaN,132.20000000000002,NaN,345.227,12.781,2.416,0.875,0.417,0.338,0.121,0.926,NaN,NaN,NaN,NaN,NaN,NaN,NaN,NaN,1.914,90.01166961505233,14.985000000000014,1013,0.001225,340.38,0.067,3.178e6,10.2,80,0.002,0.174,0
0.22,2.318,2.318,23.074,23.074,114.46,114.46,-7.08e-4,0,7.08e-4,269.9777130656439,0.004,0,32.367,-106.83,4.698253920072751,0,0,0,90.01166961505233,0,2757,801,0.659,0.007,9.795,NaN,132.20000000000002,NaN,345.062,12.777,2.462,0.875,0.417,0.338,0.121,0.925,NaN,NaN,NaN,NaN,NaN,NaN,NaN,NaN,1.908,90.01166961505233,14.985000000000014,1013,0.001225,340.38,0.068,3.21e6,10.2,80,0.002,0.175,0
0.222,2.365,2.365,23.303,23.303,114.399,114.399,-7.151e-4,0,7.151e-4,269.9777130656439,0.004,0,32.367,-106.83,4.640958140559668,0,0,0,90.01166961505233,0,2757,801,0.659,0.007,9.795,NaN,132.20000000000002,NaN,344.897,12.772,2.507,0.876,0.417,0.338,0.121,0.924,NaN,NaN,NaN,NaN,NaN,NaN,NaN,NaN,1.903,90.01166961505233,14.985000000000014,1013,0.001225,340.38,0.069,3.241e6,10.2,80,0.002,0.176,0
0.224,2.412,2.412,23.531,23.531,114.338,114.338,-7.221e-4,0,7.221e-4,269.9777130656439,0.004,0,32.367,-106.83,4.583662361046586,0,0,0,90.01166961505233,0,2757,800,0.659,0.007,9.795,NaN,132.20000000000002,NaN,344.732,12.768,2.553,0.876,0.417,0.338,0.121,0.923,NaN,NaN,NaN,NaN,NaN,NaN,NaN,NaN,1.897,90.01166961505233,14.984000000000037,1013,0.001225,340.379,0.069,3.273e6,10.2,80,0.002,0.177,0
0.226,2.459,2.459,23.76,23.76,114.277,114.277,-7.292e-4,0,7.292e-4,269.9777130656439,0.004,0,32.367,-106.83,4.526366581533504,0,0,0,90.01166961505233,0,2755.9999999999995,800,0.659,0.007,9.795,NaN,132.20000000000002,NaN,344.568,12.763,2.6,0.876,0.417,0.338,0.121,0.922,NaN,NaN,NaN,NaN,NaN,NaN,NaN,NaN,1.892,90.01166961505233,14.984000000000037,1013,0.001225,340.379,0.07,3.304e6,10.2,80,0.002,0.178,0
0.228,2.507,2.507,23.988,23.988,114.216,114.216,-7.363e-4,0,7.363e-4,269.9777130656439,0.004,0,32.367,-106.83,4.469070802020421,0,0,0,90.01166961505233,0,2755.9999999999995,800,0.659,0.007,9.795,NaN,132.20000000000002,NaN,344.403,12.759,2.647,0.876,0.417,0.338,0.121,0.921,NaN,NaN,NaN,NaN,NaN,NaN,NaN,NaN,1.887,90.01166961505233,14.984000000000037,1013,0.001225,340.379,0.071,3.336e6,10.2,80,0.002,0.183,0
0.23,2.555,2.555,24.217,24.217,114.154,114.154,-7.434e-4,0,7.434e-4,269.9777130656439,0.004,0,32.367,-106.83,4.411775022507339,0,0,0,90.01166961505233,0,2755.9999999999995,799,0.659,0.007,9.795,NaN,132.20000000000002,NaN,344.238,12.754,2.694,0.876,0.417,0.338,0.121,0.92,NaN,NaN,NaN,NaN,NaN,NaN,NaN,NaN,1.881,90.01166961505233,14.983000000000004,1013,0.001225,340.379,0.071,3.367e6,10.2,80,0.002,0.184,0
0.232,2.604,2.604,24.445,24.445,114.093,114.093,-7.505e-4,0,7.505e-4,269.9777130656439,0.004,0,32.367,-106.83,4.354479242994256,0,0,0,90.01166961505233,0,2755,799,0.658,0.007,9.795,NaN,132.20000000000002,NaN,344.073,12.75,2.742,0.876,0.417,0.338,0.121,0.919,NaN,NaN,NaN,NaN,NaN,NaN,NaN,NaN,1.876,90.01166961505233,14.983000000000004,1013,0.001225,340.379,0.072,3.399e6,10.2,80,0.002,0.187,0
0.234,2.653,2.653,24.673,24.673,114.031,114.031,-7.575e-4,0,7.575e-4,269.9777130656439,0.004,0,32.367,-106.83,4.354479242994256,0,0,0,90.01166961505233,0,2755,799,0.658,0.007,9.795,NaN,132.20000000000002,NaN,343.908,12.745,2.79,0.876,0.417,0.338,0.121,0.918,NaN,NaN,NaN,NaN,NaN,NaN,NaN,NaN,1.87,90.01166961505233,14.983000000000004,1013,0.001225,340.378,0.073,3.43e6,10.2,80,0.002,0.188,0
0.236,2.702,2.702,24.901,24.901,113.969,113.969,-7.646e-4,0,7.646e-4,269.9777130656439,0.004,0,32.367,-106.83,4.297183463481174,0,0,0,90.01166961505233,0,2754,798,0.658,0.007,9.795,NaN,132.1,NaN,343.743,12.74,2.839,0.876,0.417,0.338,0.121,0.917,NaN,NaN,NaN,NaN,NaN,NaN,NaN,NaN,1.865,90.01166961505233,14.982000000000028,1013,0.001225,340.378,0.073,3.462e6,10.2,80,0.002,0.189,0
0.238,2.752,2.752,25.129,25.129,113.907,113.907,-7.717e-4,0,7.717e-4,269.9777130656439,0.004,0,32.367,-106.83,4.239887683968092,0,0,0,90.01166961505233,0,2754,798,0.658,0.007,9.795,NaN,132.1,NaN,343.578,12.736,2.888,0.876,0.417,0.338,0.121,0.916,NaN,NaN,NaN,NaN,NaN,NaN,NaN,NaN,1.86,90.01166961505233,14.982000000000028,1013,0.001225,340.378,0.074,3.493e6,10.2,80,0.002,0.19,0
0.24,2.803,2.803,25.357,25.357,113.844,113.844,-7.788e-4,0,7.788e-4,269.9777130656439,0.004,0,32.367,-106.83,4.182591904455009,0,0,0,90.01166961505233,0,2754,798,0.658,0.007,9.795,NaN,132.1,NaN,343.413,12.731,2.938,0.876,0.417,0.338,0.121,0.915,NaN,NaN,NaN,NaN,NaN,NaN,NaN,NaN,1.854,90.01166961505233,14.982000000000028,1013,0.001225,340.378,0.075,3.525e6,10.2,80,0.002,0.191,0
0.242,2.854,2.854,25.584,25.584,113.782,113.782,-7.858e-4,0,7.858e-4,269.9777130656439,0.004,0,32.367,-106.83,4.125296124941927,0,0,0,90.01166961505233,0,2753,797,0.658,0.007,9.795,NaN,132.1,NaN,343.249,12.727,2.988,0.876,0.417,0.338,0.121,0.915,NaN,NaN,NaN,NaN,NaN,NaN,NaN,NaN,1.849,90.01166961505233,14.980999999999995,1013,0.001225,340.378,0.075,3.556e6,10.2,80,0.002,0.192,0
0.244,2.905,2.905,25.812,25.812,113.719,113.719,-7.929e-4,0,7.929e-4,269.9777130656439,0.004,0,32.367,-106.83,4.068000345428844,0,0,0,90.01166961505233,0,2753,797,0.658,0.007,9.795,NaN,132.1,NaN,343.084,12.722,3.038,0.876,0.417,0.338,0.121,0.914,NaN,NaN,NaN,NaN,NaN,NaN,NaN,NaN,1.843,90.01166961505233,14.980999999999995,1013,0.001225,340.377,0.076,3.587e6,10.2,80,0.002,0.193,0
0.246,2.957,2.957,26.039,26.039,113.656,113.656,-8e-4,0,8e-4,269.9777130656439,0.004,0,32.367,-106.83,4.010704565915763,0,0,0,90.01166961505233,0,2753,797,0.657,0.007,9.795,NaN,132.1,NaN,342.919,12.718,3.089,0.876,0.417,0.339,0.121,0.913,NaN,NaN,NaN,NaN,NaN,NaN,NaN,NaN,1.838,90.01166961505233,14.980999999999995,1013,0.001225,340.377,0.077,3.619e6,10.2,80,0.002,0.194,0
0.248,3.009,3.009,26.267,26.267,113.593,113.593,-8.071e-4,0,8.071e-4,269.9777130656439,0.004,0,32.367,-106.83,4.010704565915763,0,0,0,90.01166961505233,0,2751.9999999999995,796,0.657,0.007,9.795,NaN,132.1,NaN,342.754,12.713,3.14,0.876,0.417,0.339,0.121,0.912,NaN,NaN,NaN,NaN,NaN,NaN,NaN,NaN,1.832,90.01166961505233,14.980000000000018,1013,0.001225,340.377,0.077,3.65e6,10.2,80,0.002,0.195,0
0.25,3.062,3.062,26.494,26.494,113.53,113.561,-8.142e-4,0,8.142e-4,269.9777130656439,0.004,2.658,32.367,-106.83,3.95340878640268,0,0,0,90.01166961505233,0,2751.9999999999995,796,0.657,0.007,9.795,151.2,132.1,1.885,342.589,12.709,3.192,0.876,0.417,0.339,0.121,0.912,2.09,3.939,4.294e-4,0,0,0,0,0,1.827,90.01166961505233,14.980000000000018,1013,0.001225,340.377,0.078,3.681e6,10.2,80,0.003,0.196,0
0.253,3.142,3.142,26.834,26.834,113.435,113.467,-8.368e-4,0,8.368e-4,269.9777130656439,0.012,2.675,32.367,-106.83,3.896113006889598,0,0.343774677078494,-9.556936022782132e-6,90.01166961505233,90.01166961505233,2751.9999999999995,795,0.657,0.007,9.795,151.29999999999998,132.1,1.89,342.342,12.702,3.27,0.876,0.417,0.339,0.121,0.911,2.051,3.877,4.948e-4,0,0,0,0,1.654e-4,1.826,90.01166961505233,14.980000000000018,1013,0.001225,340.377,0.079,3.728e6,10.2,80,0.005,0.199,0
0.257,3.264,3.264,27.344,27.344,113.292,113.324,-9.159e-4,0,9.159e-4,269.9777130656439,0.024,2.698,32.367,-106.83,3.781521447863434,0,0.916732472209317,-5.120523815084167e-5,90.01166961505233,90.01166961505233,2751,795,0.657,0.007,9.795,151.4,132.1,1.899,341.971,12.692,3.389,0.876,0.417,0.339,0.121,0.909,1.996,3.788,-3.231e-4,0,0,0,0,0.001,1.827,90.01166961505233,14.979000000000042,1013,0.001225,340.376,0.081,3.799e6,10.2,80,0.007,0.201,0
0.264,3.451,3.451,28.108,28.108,113.076,113.109,-0.001,0,0.001,269.9777130656439,0.042,2.716,32.367,-106.83,3.609634109324186,0,1.776169164905552,-7.213538640697064e-5,90.01166961505233,90.01166961505233,2750,794,0.656,0.007,9.795,151.4,132,1.911,341.414,12.677,3.571,0.876,0.417,0.339,0.121,0.907,1.915,3.656,-1.659e-4,0,0,0,0,0.004,1.829,90.01166961505233,14.978000000000009,1013,0.001225,340.375,0.083,3.904e6,10.2,80,0.002,0.202,0
0.266,3.515,3.515,28.363,28.363,113.004,113.037,-0.001,0,0.001,269.9777130656439,0.048,2.717,32.367,-106.83,3.552338329811104,0,2.062648062470963,-8.577178193108424e-5,90.01166961505233,90.01166961505233,2749,793,0.656,0.007,9.795,151.5,132,1.915,341.229,12.672,3.633,0.876,0.417,0.339,0.121,0.906,1.888,3.611,6.673e-5,0,0,0,0,0.005,1.83,90.01166961505233,14.977000000000032,1013,0.001225,340.375,0.083,3.939e6,10.2,80,0.003,0.204,0
0.269,3.611,3.611,28.744,28.744,112.905,112.938,-0.001,0,0.001,269.9777130656439,0.057,2.716,32.367,-106.83,3.495042550298022,0,2.521014298575622,-7.545854161872942e-5,89.95437383553924,90.01166961505233,2749,793,0.656,0.007,9.795,151.5,132,1.921,340.979,12.665,3.726,0.876,0.417,0.339,0.121,0.905,1.848,3.544,-4.887e-4,0,0,0,0,0.007,1.83,90.01166961505233,14.977000000000032,1013,0.001225,340.375,0.085,3.992e6,10.2,80,0.005,0.205,0
0.274,3.758,3.758,29.315,29.315,112.756,112.788,-0.002,0,0.002,269.9777130656439,0.071,2.704,32.367,-106.83,3.380450991271857,0,3.151267873219528,-9.402237418096809e-5,89.95437383553924,90.01166961505233,2748,792,0.655,0.007,9.795,151.6,132,1.93,340.604,12.655,3.868,0.876,0.416,0.339,0.121,0.904,1.789,3.443,-4.711e-5,0,0,0,0,0.01,1.832,90.01166961505233,14.975999999999999,1013,0.001225,340.374,0.086,4.071e6,10.2,80,0.008,0.206,0
0.282,3.984,3.984,30.17,30.171,112.531,112.562,-0.002,0,0.002,269.9777130656439,0.091,2.664,32.367,-106.83,3.265859432245692,0,4.182591904455009,-7.96984293026975e-5,89.95437383553924,90.01166961505233,2746,790,0.655,0.007,9.795,151.7,132,1.944,340.041,12.64,4.086,0.876,0.416,0.339,0.121,0.901,1.701,3.289,3.84e-4,0,0,0,0,0.017,1.833,90.01166961505233,14.974000000000046,1013,0.001225,340.373,0.089,4.189e6,10.2,80,0.01,0.208,0
0.292,4.291,4.291,31.294,31.294,112.232,112.261,-0.003,0,0.003,269.9777130656439,0.118,2.571,32.367,-106.83,3.036676314193363,0,5.500394833255903,-1.707987187284984e-4,89.89707805602616,90.01166961505233,2745,789,0.654,0.007,9.795,151.89999999999998,131.9,1.962,339.3,12.62,4.381,0.876,0.416,0.339,0.121,0.899,1.585,3.083,-1.1e-4,0,0,0,0,0.027,1.836,90.01166961505233,14.972000000000037,1013,0.001225,340.372,0.092,4.344e6,10.2,80,0.01,0.21,0
0.302,4.61,4.61,32.415,32.415,111.929,111.956,-0.005,0,0.005,269.9777130656439,0.143,2.428,32.367,-106.83,2.807493196141034,0,6.818197762056796,-2.813795731887473e-4,89.83978227651309,90.01166961505233,2743,787,0.654,0.007,9.795,152,131.9,1.98,338.559,12.601,4.685,0.877,0.416,0.339,0.121,0.896,1.47,2.873,4.881e-4,0,0,0,0,0.039,1.838,90.01166961505233,14.970000000000027,1013,0.001224,340.371,0.095,4.499e6,10.2,80,0.01,0.211,0
0.312,4.939,4.939,33.533,33.533,111.623,111.645,-0.006,7.524e-9,0.006,269.9777130656439,0.166,2.233,32.367,-106.83,2.578310078088705,0,8.193296470370772,-4.011277523710894e-4,89.72519071748692,90.01166961505233,2741,785,0.653,0.007,9.795,152.2,131.8,1.999,337.818,12.581,4.999,0.877,0.416,0.339,0.121,0.893,1.356,2.657,-1.99e-4,0,0,0,0,0.052,1.84,90.01166961505233,14.968000000000018,1013,0.001224,340.369,0.099,4.654e6,10.2,80,0.01,0.212,0
0.322,5.28,5.28,34.648,34.648,111.313,111.331,-0.008,1.385e-8,0.008,269.9777130656439,0.187,1.987,32.367,-106.83,2.406422739549458,0,9.511099399171666,-4.250773882075577e-4,89.66789493797383,90.01166961505233,2740,784,0.652,0.007,9.795,152.29999999999998,131.8,2.017,337.077,12.561,5.322,0.877,0.416,0.339,0.121,0.891,1.242,2.438,-3.079e-4,0,0,0,0,0.066,1.842,90.01166961505233,14.966000000000008,1013,0.001224,340.368,0.102,4.808e6,10.2,80,0.003,0.212,0
0.325,5.384,5.384,34.978,34.978,111.221,111.237,-0.009,1.642e-8,0.009,269.9777130656439,0.193,1.904,32.367,-106.83,2.349126960036375,0,9.854874076250159,-4.691951384326312e-4,89.61059915846076,90.01166961505233,2739,783,0.652,0.007,9.795,152.29999999999998,131.8,2.023,336.857,12.555,5.419,0.877,0.416,0.339,0.121,0.89,1.208,2.372,2.424e-4,0,0,0,0,0.07,1.842,90.01166961505233,14.965000000000032,1013,0.001224,340.368,0.103,4.853e6,10.2,80,0.004,0.221,0
0.329,5.541,5.541,35.473,35.473,111.115,111.129,-0.009,2.098e-8,0.009,269.9777130656439,0.201,1.77,32.367,-106.83,2.234535401010211,0,10.427831871380983,-4.561889964831614e-4,89.61059915846076,90.01166961505233,2738,782,0.652,0.007,9.795,152.4,131.8,2.031,336.622,12.55,5.567,0.877,0.416,0.339,0.121,0.89,1.157,2.274,-3.018e-4,0,0,0,0,0.076,1.843,90.01166961505233,14.963999999999999,1013,0.001224,340.367,0.104,4.922e6,10.2,80,0.007,0.223,0
0.336,5.78,5.78,36.215,36.215,110.956,110.966,-0.011,2.965e-8,0.011,269.9777130656439,0.212,1.55,32.367,-106.83,2.119943841984046,0,11.287268564077218,-4.64955250748663e-4,89.49600759943459,90.01166961505233,2737,781,0.651,0.007,9.795,152.5,131.8,2.044,336.27,12.542,5.793,0.877,0.416,0.339,0.121,0.888,1.081,2.124,2.67e-4,0,0,0,0,0.085,1.844,90.01166961505233,14.962000000000046,1013,0.001224,340.366,0.107,5.024e6,10.2,80,0.01,0.224,0
0.346,6.148,6.148,37.323,37.324,110.713,110.719,-0.013,4.745e-8,0.013,269.9777130656439,0.226,1.176,32.367,-106.83,1.890760723931717,0,12.490479933851946,-4.689086595350657e-4,89.38141604040842,90.01166961505233,2736,780,0.651,0.007,9.795,152.7,131.7,2.062,335.743,12.53,6.139,0.877,0.416,0.34,0.122,0.886,0.968,1.897,-1.079e-4,0,0,0,0,0.099,1.846,90.01166961505233,14.960000000000036,1013,0.001224,340.365,0.11,5.178e6,10.2,80,0.01,0.225,0
0.356,6.526,6.526,38.429,38.43,110.464,110.467,-0.015,7.211e-8,0.015,269.9777130656439,0.236,0.773,32.367,-106.83,1.661577605879387,0,13.636395524113592,-4.246763177509662e-4,89.26682448138226,90.01166961505233,2734,778,0.65,0.007,9.795,152.8,131.7,2.08,335.216,12.518,6.496,0.878,0.416,0.34,0.122,0.885,0.863,1.684,3.843e-4,0,0,0,0,0.111,1.858,90.01166961505233,14.958000000000027,1012,0.001224,340.363,0.113,5.331e6,10.2,80,0.01,0.226,0
0.366,6.916,6.916,39.532,39.533,110.211,110.211,-0.018,1.049e-7,0.018,269.9777130656439,0.241,0.332,32.367,-106.83,1.48969026734014,0,14.667719555349075,-5.947301913457945e-4,89.09493714284301,90.01166961505233,2732,776,0.649,0.007,9.795,152.89999999999998,131.6,2.098,334.69,12.506,6.863,0.878,0.416,0.34,0.122,0.883,0.763,1.48,-4.61e-4,0,0,0,0,0.122,1.877,90.01166961505233,14.955000000000041,1012,0.001224,340.362,0.116,5.483e6,10.2,80,0.01,0.228,0
0.376,7.317,7.317,40.633,40.634,109.951,109.951,-0.02,1.469e-7,0.02,269.9777130656439,0.242,0.156,32.367,-106.83,1.317802928800893,0,15.699043586584557,-4.132744576278628e-4,88.98034558381684,90.01166961505233,2731,774,0.649,0.007,9.795,153.1,131.6,2.115,334.163,12.494,7.241,0.878,0.416,0.34,0.122,0.882,0.664,1.273,1.188e-4,0,0,0,0,0.131,1.896,90.01166961505233,14.951999999999998,1012,0.001224,340.36,0.119,5.636e6,10.2,80,0.008,0.229,0
0.384,7.64,7.64,41.497,41.498,109.742,109.743,-0.022,1.87e-7,0.022,269.9777130656439,0.239,0.574,32.367,-106.83,1.145915590261647,0,16.386592940741544,-4.831753086338232e-4,88.86575402479068,90.01166961505233,2729,773,0.648,0.007,9.795,153.2,131.6,2.129,333.748,12.485,7.545,0.878,0.416,0.34,0.122,0.882,0.586,1.111,-1.712e-4,0,0,0,0,0.137,1.911,90.01166961505233,14.950000000000045,1012,0.001224,340.359,0.122,5.755e6,10.2,80,0.01,0.23,0
0.394,8.061,8.061,42.592,42.593,109.248,109.254,-0.024,2.474e-7,0.024,269.9777130656439,0.231,1.138,32.367,-106.83,0.9740282517224,0,17.188733853924695,-5.890006133944863e-4,88.69386668625144,90.01166961505233,2728,771,0.647,0.007,9.795,153.29999999999998,131.5,2.147,332.617,12.45,7.94,0.878,0.416,0.34,0.122,0.881,0.488,0.904,-3.343e-4,0,0,0,0,0.143,1.93,90.01166961505233,14.948000000000036,1012,0.001224,340.357,0.125,5.907e6,10.2,80,0.01,0.236,0
0.404,8.492,8.492,43.682,43.683,108.746,108.76,-0.027,3.19e-7,0.027,269.9777130656439,0.216,1.742,32.367,-106.83,0.74484513367007,0,17.8189874285686,-7.121865393476132e-4,88.52197934771219,90.01166961505233,2726,770,0.647,0.007,9.795,153.5,131.5,2.165,331.485,12.415,8.345,0.878,0.416,0.34,0.122,0.88,0.391,0.699,2.675e-4,0,0,0,0,0.147,1.949,90.01166961505233,14.94500000000005,1012,0.001224,340.355,0.128,6.058e6,10.2,80,0.01,0.238,0
0.414,8.934,8.934,44.767,44.767,108.237,108.263,-0.029,4.021e-7,0.029,269.9777130656439,0.196,2.38,32.367,-106.83,0.572957795130823,0,18.391945223699427,-9.625690958197829e-4,88.29279622965986,90.01166961505233,2724,768,0.646,0.007,9.795,153.6,131.4,2.182,330.354,12.38,8.759,0.879,0.416,0.34,0.122,0.88,0.296,0.497,1.443e-4,0,0,0,0,0.148,1.968,90.01166961505233,14.942000000000007,1012,0.001224,340.354,0.132,6.208e6,10.2,80,0.01,0.239,0
