# Time (s),Altitude (m),Altitude above sea level (m),Vertical velocity (m/s),Total velocity (m/s),Vertical acceleration (m/s²),Total acceleration (m/s²),Position East of launch (m),Position North of launch (m),Lateral distance (m),Lateral direction (°),Lateral velocity (m/s),Lateral acceleration (m/s²),Latitude (° N),Longitude (° E),Angle of attack (°),Roll rate (°/s),Pitch rate (°/s),Yaw rate (°/s),Vertical orientation (zenith) (°),Lateral orientation (azimuth) (°),Mass (g),Motor mass (g),Longitudinal moment of inertia (kg·m²),Rotational moment of inertia (kg·m²),Gravitational acceleration (m/s²),CP location (cm),CG location (cm),Stability margin calibers (​),Thrust (N),Thrust-to-weight ratio (​),Drag force (N),Drag coefficient (​),Friction drag coefficient (​),Pressure drag coefficient (​),Base drag coefficient (​),Axial drag coefficient (​),Normal force coefficient (​),Pitch moment coefficient (​),Yaw moment coefficient (​),Side force coefficient (​),Roll moment coefficient (​),Roll forcing coefficient (​),Roll damping coefficient (​),Pitch damping coefficient (​),Wind velocity (m/s),Wind direction (°),Air temperature (°C),Air pressure (mbar),Air density (g/cm³),Speed of sound (m/s),Mach number (​),Reynolds number (​),Reference length (cm),Reference area (cm²),Simulation time step (s),Computation time (s),Coriolis acceleration (m/s²)
0,0,0,0,0,0,0,0,0,0,0,0,0,28.610000000000003,-80.6,85,0,0,0,85,90,2689.601231869018,836.4399999999999,0.632614311944782,0.00719862356044,9.792177302472455,NaN,134.6261209322958,NaN,0,0,3.662113058333294e-5,1.053181842730416,0.5964148850594,0.33676200093187,0.120004956739147,0.001669340988263,NaN,NaN,NaN,NaN,NaN,NaN,NaN,NaN,2.101850127608724,90,15,1013.25,0.001224999463349,340.3889,0.006174849202218,2.914369323409786e5,10.16,81.07319665559963,0.002,0.0038946,0
0.002,0,0,0,0,0,0,0,0,0,0,0,0,28.610000000000003,-80.6,85,0,0,0,85,90,2689.444467487529,836.2832356185105,0.632556700577943,0.007198595263735,9.792177302472455,NaN,134.62260443677886,NaN,22.259214285714286,0.84521652739455,3.649398747217735e-5,1.053431848077907,0.596665369670351,0.336761540049741,0.120004938357815,0.001669737258078,NaN,NaN,NaN,NaN,NaN,NaN,NaN,NaN,2.097949308036822,90,15,1013.25,0.001224999463349,340.3889,0.006163389311569,2.908960551039588e5,10.16,81.07319665559963,0.002,0.0059165,0
0.004,3.445251893146442e-6,3.445251893146442e-6,0.005680932800796,0.00594926815214,6.707040874889714,6.841276852156712,1.317056412688904e-6,0,1.317056412688904e-6,90,0.001766576932634,1.3485813547628,28.610000000000003,-80.59999999998648,84.84469398975885,0,0,0,85,90,2689.2877031060393,836.1264712370211,0.632499082558935,0.00719856696703,9.792177302461866,NaN,134.61908753129367,NaN,44.51842857142857,1.690531593780259,3.985831801477236e-5,1.053568401891196,0.596802184936401,0.336761288603236,0.120004928351559,0.001827370717496,NaN,NaN,NaN,NaN,NaN,NaN,NaN,NaN,2.094048488464919,90,14.999999977605853,1013.2499995959297,0.001224999462955,340.3888999864291,0.006157141918722,2.906011942119846e5,10.16,81.07319665559963,0.002,0.0065048,0
0.006,3.371899012339655e-5,3.371899012339655e-5,0.027341781615996,0.027829129538937,14.953969434805538,15.096578498482147,8.028422679819654e-6,0,8.028422679819654e-6,90,0.005185308954935,2.070140213544777,28.610000000000003,-80.59999999991764,84.25239577600804,0,0,0,85,90,2689.13093872455,835.9697068555315,0.632441457886593,0.007198538670326,9.792177302368804,NaN,134.61557021576857,NaN,66.77764285714285,2.535945216411641,5.486504802701129e-5,1.05358841430852,0.596822235651325,0.336761251770066,0.120004926887129,0.002516126813206,NaN,NaN,NaN,NaN,NaN,NaN,NaN,NaN,2.090147668893017,90,14.999999780826556,1013.2499960453275,0.001224999459499,340.3888998671809,0.006156227071745,2.905580150338791e5,10.16,81.07319665559963,0.002,0.0071351,0
0.008,1.238089292727485e-4,1.238089292727485e-4,0.065497456889215,0.066263569424205,23.201867502858505,23.369204817880483,2.302032007191931e-5,0,2.302032007191931e-5,90,0.010047077877767,2.791608532700601,28.610000000000003,-80.59999999976387,83.21040963723738,0,0,0,85,90,2688.974174343061,835.8129424740421,0.632383826559754,0.007198510373621,9.792177302091867,NaN,134.61205249013184,NaN,89.03685714285714,3.38145741258225,8.95564379373005e-5,1.053472439871932,0.596706039207038,0.336761465283901,0.120004935380993,0.004100015578586,NaN,NaN,NaN,NaN,NaN,NaN,NaN,NaN,2.086246849321114,90,14.99999919524197,1013.2499854792874,0.001224999449215,340.3888995123166,0.006161531398786,2.908083632927371e5,10.16,81.07319665559963,0.002,0.0077518,0
0.01,3.067066618419777e-4,3.067066618419777e-4,0.120149898405207,0.121257469889127,31.45073567920167,31.646316116368176,4.917859701226945e-5,0,4.917859701226945e-5,90,0.016351633469804,3.512911751538194,28.610000000000003,-80.59999999949555,81.72340803134816,0,0,0,85,90,2688.8174099615712,835.6561780925525,0.632326188577254,0.007198482076916,9.792177301529643,NaN,134.60853435431176,NaN,111.29607142857144,4.227068199624696,1.60248695708349e-4,1.053163668602518,0.596396676061123,0.336762034462634,0.120004958078761,0.007302817893041,NaN,NaN,NaN,NaN,NaN,NaN,NaN,NaN,2.082346029749212,90,14.999998006406713,1013.2499640284484,0.001224999428335,340.38889879188247,0.006175683556391,2.914763039387306e5,10.16,81.07319665559963,0.002,0.0086155,0
0.012,6.154076601617552e-4,6.154076601617552e-4,0.191301045600919,0.192812940093291,39.700572739396804,39.92570284900199,8.938843070514781e-5,0,8.938843070514781e-5,90,0.024098543927263,4.233942861053882,28.610000000000003,-80.5999999990831,79.80122771369814,0,0,0,85,90,2688.6606455800816,835.4994137110632,0.632268543937929,0.007198453780211,9.7921773005807,NaN,134.60501580823663,NaN,133.5552857142857,5.072777594910666,2.957450531470479e-4,1.052583313459643,0.59581520528467,0.336763107102906,0.120005001072067,0.013361763501346,NaN,NaN,NaN,NaN,NaN,NaN,NaN,NaN,2.078445210177309,90,14.999995999850228,1013.2499278229947,0.001224999393094,340.38889757590925,0.006202401561853,2.927373169003812e5,10.16,81.07319665559963,0.002,0.0092942,0
0.014,0.00108291127091,0.00108291127091,0.278952832199918,0.280931870182897,47.951373900246374,48.20665875413392,1.465338991218343e-4,0,1.465338991218343e-4,90,0.033287131028433,4.954562474758651,28.610000000000003,-80.59999999849694,77.46121922632578,0,0,0,85,90,2688.5038811985924,835.3426493295736,0.632210892640614,0.007198425483506,9.792177299143603,NaN,134.60149685183455,NaN,155.8145,5.918585615850933,5.419601045460743e-4,1.051634572657412,0.594864631738848,0.336764868619595,0.120005072298969,0.024141925337778,NaN,NaN,NaN,NaN,NaN,NaN,NaN,NaN,2.074544390605407,90,14.999992961076714,1013.2498729926556,0.001224999339724,340.3888957344125,0.006246413721027,2.948145650462927e5,10.16,81.07319665559963,0.002,0.0098616,0
0.016,0.001742220695419,0.001742220695419,0.383107177398593,0.385616078571535,56.203129170391364,56.488873267245225,2.23497423529285e-4,0,2.23497423529285e-4,90,0.043916405574358,5.674599057131346,28.610000000000003,-80.5999999977075,74.73078338669214,0,0,0,85,90,2688.3471168171027,835.1858849480842,0.632153234684145,0.007198397186801,9.792177297116897,NaN,134.59797748503382,NaN,178.0737142857143,6.764492279895381,9.662785804344631e-4,1.050209309967229,0.593436594688464,0.336767533734463,0.120005181544302,0.042135931409155,NaN,NaN,NaN,NaN,NaN,NaN,NaN,NaN,2.070643571033505,90,14.999988675565476,1013.2497956667091,0.001224999264457,340.38889313739264,0.006313321874576,2.979724397071372e5,10.16,81.07319665559963,0.002,0.0105221,0
0.018,0.002626342949316,0.002626342949316,0.503765974168277,0.506867317300387,64.4558221811869,64.77217244292214,3.231590825000268e-4,0,3.231590825000268e-4,90,0.055985003506097,6.393849382246675,28.610000000000003,-80.59999999668523,71.6495388131746,0,0,0,85,90,2688.190352435613,835.0291205665947,0.632095570067357,0.007198368890095,9.792177294399117,NaN,134.59445770776264,NaN,200.3329285714286,7.610497604533018,0.001660572501745,1.048197856058591,0.591421181627733,0.33677133399084,0.120005340440018,0.070257114084036,NaN,NaN,NaN,NaN,NaN,NaN,NaN,NaN,2.066742751461602,90,14.999982928770805,1013.249691973985,0.001224999163525,340.3888896548351,0.006409392157558,3.025066849946588e5,10.16,81.07319665559963,0.002,0.01226,0
0.02,0.003768288796933,0.003768288796933,0.640931076004903,0.644687257818557,72.70942985475841,73.05643613859984,4.483957992524798e-4,0,4.483957992524798e-4,90,0.069491123208702,7.112079264834023,28.610000000000003,-80.59999999540062,68.27041082079221,0,0,0,85,90,2688.0335880541234,834.8723561851052,0.632037898789084,0.00719834059339,9.792177290888795,NaN,134.5909375199492,NaN,222.5921428571429,8.456601607291985,0.002741911645179,1.045501536944403,0.588719473315685,0.336776501163259,0.120005562465459,0.111377045382923,NaN,NaN,NaN,NaN,NaN,NaN,NaN,NaN,2.062841931889699,90,14.999975506122837,1013.2495580428741,0.001224999033161,340.38888515671044,0.006541268672011,3.087308837934132e5,10.16,81.07319665559963,0.002,0.0129351,0
0.022,0.005201072659234,0.005201072659234,0.794604284054369,0.799077473907416,80.96392313309622,81.34156670774512,6.020804052409679e-4,0,6.020804052409679e-4,90,0.084432464542389,7.829024547709373,28.610000000000003,-80.59999999382423,64.65894775174523,0,0,0,85,90,2687.876823672634,834.7155918036158,0.63198022084816,0.007198312296684,9.792177286484439,NaN,134.58741692152162,NaN,244.8513571428572,9.30280430573958,0.004350372610591,1.042046374434997,0.585257263588897,0.336783247898519,0.120005862947581,0.167656378523421,NaN,NaN,NaN,NaN,NaN,NaN,NaN,NaN,2.058941112317797,90,14.999966193027717,1013.249390001338,0.001224998869594,340.38887951297477,0.006715623335105,3.169599313888907e5,10.16,81.07319665559963,0.002,0.0149195,0
0.024,0.006957712498194,0.006957712498194,0.964787336785174,0.970039426589573,89.21926877704504,89.62747659122189,7.870805839146176e-4,0,7.870805839146176e-4,90,0.100806170035364,8.544392254538835,28.610000000000003,-80.59999999192661,60.89046455378073,0,0,0,85,90,2687.720059291145,834.5588274221262,0.631922536243421,0.007198283999979,9.792177281084555,NaN,134.58389591240814,NaN,267.1105714285715,10.149105717482277,0.006643945288371,1.037795297159819,0.580997289784493,0.336791748314221,0.120006259061106,0.239842742195905,NaN,NaN,NaN,NaN,NaN,NaN,NaN,NaN,2.055040292745895,90,14.99995477486874,1013.2491839769232,0.001224998669056,340.38887259357045,0.006938776829589,3.274921451894987e5,10.16,81.07319665559963,0.002,0.0167724,0
0.026,0.009071229684725,0.009071229684725,1.151481904150163,1.157574453558615,97.4754319972671,97.91408400865674,0.001006257699203,0,0.001006257699203,90,0.118608768420554,9.257861750990257,28.610000000000003,-80.59999998967842,57.045179600031624,0,0,0,85,90,2687.5632949096553,834.4020630406368,0.631864844973699,0.007198255703273,9.792177274587637,NaN,134.5803744925368,NaN,289.36978571428585,10.99550586016574,0.009791211668126,1.032755799907138,0.575946907928007,0.336802122150523,0.120006769828608,0.326789878844942,NaN,NaN,NaN,NaN,NaN,NaN,NaN,NaN,2.051139473173992,90,14.999941037007034,1013.2489360967761,0.001224998427777,340.38886426842623,0.007216342887801,3.405924757335189e5,10.16,81.07319665559963,0.002,0.0173558,0
0.028,0.011574648860538,0.011574648860538,1.354689587487252,1.361683764506079,105.73237947736871,106.20131232834638,0.001262465513311,0,0.001262465513311,90,0.137836120349735,9.969085731233115,28.610000000000003,-80.5999999870504,53.20216249332514,0,0,0,85,90,2687.4065305281656,834.2452986591474,0.63180714703783,0.007198227406568,9.792177266892164,NaN,134.57685266183577,NaN,311.629,11.842004751474818,0.013963018223468,1.026980790984928,0.570158949066433,0.336814425797953,0.120007416120542,0.4254146903878,NaN,NaN,NaN,NaN,NaN,NaN,NaN,NaN,2.04723865360209,90,14.999924764782406,1013.2486424876598,0.001224998141987,340.3888544074581,0.007552951813136,3.564794575069603e5,10.16,81.07319665559963,0.002,0.0179338,0
0.03,0.014495838153083,0.014495838153083,1.566672382090754,1.574600034245619,106.25041058377846,106.72006016661146,0.001558097545485,0,0.001558097545485,90,0.15780657476919,10.001074579447362,28.610000000000003,-80.599999984018,49.558504732296385,0,0,0,85,90,2687.07280991684,833.9115780478212,0.631684297246931,0.007198167168433,9.792177257912474,NaN,134.56935400673194,NaN,312.98964406779663,11.895186823114836,0.019121328187008,1.020792896992869,0.563956576664005,0.336828130293514,0.120008190035349,0.527524197059123,NaN,NaN,NaN,NaN,NaN,NaN,NaN,NaN,2.043337834030187,90,14.999905777051993,1013.24829988111,0.001224997808503,340.3888429008935,0.007937271062473,3.746182200810066e5,10.16,81.07319665559963,0.002,0.018484,0
0.032,0.017842029080716,0.017842029080716,1.779691215406842,1.788554616693155,106.768420187023,107.23862357846505,0.00189373328583,0,0.00189373328583,90,0.177839238353398,10.031292926189586,28.610000000000003,-80.59999998057525,46.24781727524423,0,0,0,85,90,2686.7390893055135,833.5778574364949,0.631561417229798,0.007198106930297,9.792177247626336,NaN,134.56185348880805,NaN,314.35028813559325,11.948382107963724,0.025098084654798,1.014537529386173,0.557685892499551,0.336842567072985,0.120009069813636,0.625248259345541,NaN,NaN,NaN,NaN,NaN,NaN,NaN,NaN,2.039437014458285,90,14.999884026811003,1013.2479074289906,0.001224997426502,340.3888297202475,0.008352711966667,3.942258183984649e5,10.16,81.07319665559963,0.002,0.019129,0
0.034,0.021615317220005,0.021615317220005,1.993775455259008,2.003542903019761,107.34488651850667,107.75492654611644,0.002269224608338,0,0.002269224608338,90,0.197594529902993,9.391460657846125,28.610000000000003,-80.59999997672368,43.24100321851583,0,0,0,85,90,2686.4053686941875,833.2441368251689,0.631438506975164,0.007198046692162,9.792177236027308,NaN,134.55435110736983,NaN,315.71093220338986,12.001590610974336,0.031862877791571,1.008319505686639,0.551451912967364,0.336857537341771,0.120010055377503,0.715973723288319,NaN,NaN,NaN,NaN,NaN,NaN,NaN,NaN,2.035536194886383,90,14.999859500438049,1013.2474648855256,0.001224996995743,340.38881485726546,0.008794831306802,4.150925408697666e5,10.16,81.07319665559963,0.002,0.0224729,0
0.036,0.025817902182322,0.025817902182322,2.208981634509033,2.219558203059199,107.8612688846624,108.27328140902112,0.002683226709948,0,0.002683226709948,90,0.216422630908099,9.436638260929444,28.610000000000003,-80.59999997247711,40.50231857812449,0,0,0,85,90,2686.071648082861,832.9104162138425,0.63131556647176,0.007197986454026,9.792177223108627,NaN,134.5468468617227,NaN,317.0715762711865,12.054812337102524,0.039384135435266,1.0022206578528,0.545336650532896,0.336872862085369,0.120011145234536,0.79844091208866,NaN,NaN,NaN,NaN,NaN,NaN,NaN,NaN,2.03163537531448,90,14.999832183635817,1013.2469719927375,0.001224996515976,340.3887983032833,0.009259188590369,4.370088045450828e5,10.16,81.07319665559963,0.002,0.0255184,0
0.038,0.030451932174752,0.030451932174752,2.425220439963978,2.436612321236419,108.37751502678204,108.79149952753603,0.003134975360628,0,0.003134975360628,90,0.235341074999794,9.481803945953905,28.610000000000003,-80.59999996784335,38.01921387356638,0,0,0,85,90,2685.7379274715345,832.5766956025165,0.631192595708309,0.007197926215889,9.792177208863691,NaN,134.53934075117184,NaN,318.4322203389831,12.108047291306551,0.047618627616192,0.99625910404931,0.539358259914912,0.33688849853719,0.120012345597207,0.871516639603253,NaN,NaN,NaN,NaN,NaN,NaN,NaN,NaN,2.027734555742577,90,14.999802062440892,1013.2464284986778,0.001224995986954,340.38878004983917,0.009745056816806,4.599402932800499e5,10.16,81.07319665559963,0.002,0.026322,0
0.04,0.035519472186374,0.035519472186374,2.642491612796481,2.654704458987954,108.89363845693335,109.30959446534283,0.003624651223512,0,0.003624651223512,90,0.25434983953362,9.526958895072259,28.610000000000003,-80.59999996282055,35.76576403006034,0,0,0,85,90,2685.4042068602084,832.2429749911902,0.631069594673531,0.007197865977752,9.79217719328615,NaN,134.53183277502183,NaN,319.7928644067797,12.161295478546966,0.056529793478973,0.990467642508632,0.533549630338268,0.336904354194077,0.120013657976287,0.935195078225821,NaN,NaN,NaN,NaN,NaN,NaN,NaN,NaN,2.023833736170675,90,14.99976912343078,1013.2458341611577,0.001224995408443,340.388760088799,0.01024994419754,4.837693975627919e5,10.16,81.07319665559963,0.002,0.0305528,0
0.042,0.041022586715142,0.041022586715142,2.860794920436149,2.873834003553587,109.4096518685181,109.82757896433003,0.004152434918767,0,0.004152434918767,90,0.273448904162303,9.572104218813262,28.610000000000003,-80.59999995740687,33.717718813656354,0,0,0,85,90,2685.0704862488824,831.909254379864,0.630946563356138,0.007197805739615,9.792177176369664,NaN,134.52432293257715,NaN,321.15350847457626,12.214556903786901,0.066083296846677,0.984866289992638,0.527930849045021,0.336920357058161,0.120015083889456,0.989896540802084,NaN,NaN,NaN,NaN,NaN,NaN,NaN,NaN,2.019932916598773,90,14.999733353186343,1013.2451887380463,0.001224994780207,340.3887384120309,0.010771718474314,5.083954767020591e5,10.16,81.07319665559963,0.002,0.0311439,0
0.044,0.046963339818584,0.046963339818584,3.080130154681405,3.094000471159179,109.92556691248136,110.3454647199474,0.004718507028028,0,0.004718507028028,90,0.292638250670566,9.617240936502526,28.610000000000003,-80.59999995160045,31.852902074976196,0,0,0,85,90,2684.7367656375563,831.5755337685379,0.630823501744838,0.007197745501477,9.792177158107881,NaN,134.51681122314181,NaN,322.51415254237287,12.267831571992115,0.076247627963836,0.979465648251492,0.522512571545902,0.336936451844239,0.120016624861351,1.036287003897548,NaN,NaN,NaN,NaN,NaN,NaN,NaN,NaN,2.01603209702687,90,14.999694738291169,1013.244491987264,0.001224994102009,340.38871501140443,0.011308560865721,5.337326852302575e5,10.16,81.07319665559963,0.002,0.0317304,0
0.046,0.05334379516038,0.05334379516038,3.300497129505962,3.315203471131198,110.44139410631021,110.86326228985713,0.005323048098472,0,0.005323048098472,90,0.311917862783217,9.66236996830094,28.610000000000003,-80.59999994539943,30.151338892256295,0,0,0,85,90,2684.4030450262303,831.2418131572117,0.630700409828332,0.007197685263339,9.792177138494463,NaN,134.50929764601952,NaN,323.8747966101695,12.321119488130952,0.08699434696743,0.974269556431778,0.51729867732139,0.336952596686783,0.120018282423605,1.075150679283643,NaN,NaN,NaN,NaN,NaN,NaN,NaN,NaN,2.012131277454968,90,14.99965326533146,1013.2437436667778,0.001224993373615,340.38868987879084,0.011858921861967,5.597078865361215e5,10.16,81.07319665559963,0.002,0.0322785,0
0.048,0.060166016052427,0.060166016052427,3.521895678774639,3.537442682157089,110.95714282766588,111.38098108754156,0.005966238646499,0,0.005966238646499,90,0.331287725965312,9.707492134647552,28.610000000000003,-80.59999993880199,28.59521758261103,0,0,0,85,90,2684.069324414904,830.9080925458853,0.630577287595317,0.007197625025201,9.792177117523062,NaN,134.50178220051367,NaN,325.2354406779661,12.374420657174367,0.098298099145696,0.969277117931425,0.512288299434153,0.336968760382396,0.120020058114875,1.107305402284753,NaN,NaN,NaN,NaN,NaN,NaN,NaN,NaN,2.008230457883065,90,14.99960892089564,1013.2429435345958,0.001224992594788,340.38866300606276,0.012421481044781,5.862587564719971e5,10.16,81.07319665559963,0.002,0.0327898,0
0.05,0.067432065492368,0.067432065492368,3.744325654001983,3.760717835935206,111.47282135896798,111.89862942705781,0.006648259161016,0,0.006648259161016,90,0.350747827226057,9.752608160160182,28.610000000000003,-80.59999993180624,27.168759456983512,0,0,0,85,90,2683.7356038035778,830.5743719345593,0.630454135034483,0.007197564787062,9.792177095187341,NaN,134.4942648859272,NaN,326.5960847457627,12.427735084095909,0.110136492919423,0.96448421484908,0.507477341233473,0.336984920134735,0.120021953480872,1.133549874435513,NaN,NaN,NaN,NaN,NaN,NaN,NaN,NaN,2.004329638311163,90,14.999561691574286,1013.2420913487631,0.001224991765293,340.388634385094,0.012995111765083,6.133321162335653e5,10.16,81.07319665559963,0.002,0.0334252,0
0.052,0.07514400619668,0.07514400619668,3.967786922130554,3.985028705413638,111.98843684331965,112.41621447879454,0.00736929010633,0,0.00736929010633,90,0.370298154924434,9.797718669779382,28.610000000000003,-80.59999992441034,25.858876826856363,0,0,0,85,90,2683.4018831922517,830.240651323233,0.630330952134515,0.007197504548923,9.792177071480955,NaN,134.4867457015628,NaN,327.9567288135594,12.481062773871754,0.122490216729778,0.959883716632677,0.502858683169543,0.337001062972199,0.120023970490935,1.154616193786894,NaN,NaN,NaN,NaN,NaN,NaN,NaN,NaN,2.000507118560849,90,14.999511563959743,1013.2411868673573,0.001224990884896,340.38860400775957,0.013578968731351,6.408880662699008e5,10.16,81.07319665559963,0.002,0.0339756,0
0.054,0.083303900629432,0.083303900629432,4.192279363537526,4.210375096188511,112.50399561671219,112.93374260294549,0.008129511924668,0,0.008129511924668,90,0.389938698594801,9.842824217832561,28.610000000000003,-80.59999991661246,24.65243256521726,0,0,0,85,90,2683.068162580925,829.9069307119069,0.630207738884092,0.007197444310783,9.792177046397569,NaN,134.47922464672283,NaN,329.31737288135594,12.53440373148066,0.135342142397519,0.9554691535495,0.498425868988217,0.33701717426736,0.120026110293924,1.171210260710582,NaN,NaN,NaN,NaN,NaN,NaN,NaN,NaN,1.996684598810534,90,14.999458524645888,1013.240229848486,0.001224989953359,340.38857186593543,0.014172099872519,6.688816673199313e5,10.16,81.07319665559963,0.002,0.0352809,0
0.056,0.091913811027533,0.091913811027533,4.417802870396455,4.436756840189259,113.01950314119165,113.45121928242084,0.008929105038379,0,0.008929105038379,90,0.409669448803569,9.887925282186826,28.610000000000003,-80.59999990841072,23.538652081928014,0,0,0,85,90,2682.734441969599,829.5732101005806,0.630084495271887,0.007197384072643,9.79217701993084,NaN,134.4717017207091,NaN,330.67801694915255,12.587757961904023,0.148677503752699,0.951232234792877,0.494170613327283,0.337033247008734,0.12002837445686,1.183945527021883,NaN,NaN,NaN,NaN,NaN,NaN,NaN,NaN,1.992862079060219,90,14.999402560228305,1013.2392200502836,0.001224988970448,340.38853795149834,0.014773796152919,6.972794506759442e5,10.16,81.07319665559963,0.002,0.0359342,0
0.058,0.100975799422645,0.100975799422645,4.644357345033344,4.664173790660571,113.53496412147717,113.96864923991099,0.009768249851858,0,0.009768249851858,90,0.429490397005368,9.933022274451769,28.610000000000003,-80.5999998998033,22.50806101277882,0,0,0,85,90,2682.400721358273,829.2394894892545,0.629961221286569,0.007197323834503,9.792176992074431,NaN,134.46417692282336,NaN,332.03866101694916,12.64112547012583,0.162483581158154,0.947164346594512,0.490084304760014,0.33704927728062,0.120030764553878,1.19336510871682,NaN,NaN,NaN,NaN,NaN,NaN,NaN,NaN,1.989039559309905,90,14.999343657303768,1013.2381572309082,0.001224987935927,340.3885022563261,0.01538344611732,7.260525531168657e5,10.16,81.07319665559963,0.002,0.0364874,0
0.06,0.110491927660029,0.110491927660029,4.871942698495969,4.892625818255892,114.05038258792672,114.48603652116921,0.010647126753191,0,0.010647126753191,90,0.449401535417888,9.978115547238021,28.610000000000003,-80.59999989078831,21.552322478177516,0,0,0,85,90,2682.067000746947,828.9057688779283,0.6298379169168,0.007197263596362,9.792176962822001,NaN,134.45665025236684,NaN,333.3993050847458,12.6945062611327,0.17674947687197,0.943256830197516,0.48615828447423,0.337065263557055,0.120033282166231,1.199945462104416,NaN,NaN,NaN,NaN,NaN,NaN,NaN,NaN,1.98521703955959,90,14.999281802470193,1013.2370411485399,0.001224986849561,340.38846477229697,0.016000520720228,7.551760008906029e5,10.16,81.07319665559963,0.002,0.0371374,0
0.062,0.120464257414689,0.120464257414689,5.100558849282624,5.122112807921275,114.5657619728064,115.00338457157233,0.011565916115569,0,0.011565916115569,90,0.469402856910654,10.023205400829958,28.610000000000003,-80.59999988136394,20.664091655407013,0,0,0,85,90,2681.7332801356206,828.5720482666021,0.629714582151237,0.007197203358221,9.792176932167218,NaN,134.44912170864043,NaN,334.7599491525424,12.747900339913851,0.191465908602098,0.939501169626437,0.48238403459556,0.337081206148577,0.1200359288823,1.204101811554983,NaN,NaN,NaN,NaN,NaN,NaN,NaN,NaN,1.981394519809276,90,14.9992169823268,1013.2358715613788,0.001224985711114,340.38842549129004,0.016624560676655,7.846281127033777e5,10.16,81.07319665559963,0.002,0.0376957,0
0.064,0.13089485020513,0.13089485020513,5.330205722216125,5.352634656375388,115.08110517925448,115.52069630534811,0.012524798298491,0,0.012524798298491,90,0.489494354906513,10.068292089219264,28.610000000000003,-80.59999987152831,19.836887539904442,0,0,0,85,90,2681.399559524294,828.238327655276,0.629591216978531,0.007197143120079,9.792176900103742,NaN,134.44159129094476,NaN,336.120593220339,12.801307711461128,0.206625022878558,0.935889114596822,0.478753301530065,0.337097106769166,0.120038706297591,1.206194295378514,NaN,NaN,NaN,NaN,NaN,NaN,NaN,NaN,1.977572000058961,90,14.999149183473662,1013.2346482276432,0.001224984520351,340.38838440518504,0.01725516591351,8.143900018524448e5,10.16,81.07319665559963,0.002,0.0382383,0
0.066,0.141785767404984,0.141785767404984,5.560883247448412,5.584191270047414,115.5964146429352,116.03797416746464,0.013523953648781,0,0.013523953648781,90,0.509676023294554,10.113375825498952,28.610000000000003,-80.59999986127958,19.06498085942737,0,0,0,85,90,2681.065838912968,827.9046070439497,0.629467821387326,0.007197082881937,9.792176866625232,NaN,134.43405899858,NaN,337.4812372881356,12.854728380769,0.222220228237703,0.932412757154463,0.475258172942279,0.33711296819744,0.120041616014744,1.206534202557635,NaN,NaN,NaN,NaN,NaN,NaN,NaN,NaN,1.973749480308647,90,14.999078392511876,1013.2333709055688,0.001224983277036,340.3883415058622,0.017891986763371,8.444451605947865e5,10.16,81.07319665559963,0.002,0.0388519,0
0.068,0.153139070252777,0.153139070252777,5.792591359581406,5.816782563372169,116.11169238672578,116.55522018852619,0.014563562501443,0,0.014563562501443,90,0.529947856353184,10.158456786647843,28.610000000000003,-80.59999985061593,18.343296673502895,0,0,0,85,90,2680.732118301642,827.5708864326235,0.629344395366264,0.007197022643795,9.792176831725358,NaN,134.4265248308461,NaN,338.84188135593223,12.908162352834536,0.238246047277764,0.929064575597783,0.471891121942556,0.337128794011699,0.120044659643528,1.205389939820272,NaN,NaN,NaN,NaN,NaN,NaN,NaN,NaN,1.969926960558332,90,14.999004596043335,1013.2320393534064,0.001224981980934,340.3882967852022,0.018534716600207,8.747791125722982e5,10.16,81.07319665559963,0.002,0.0394027,0
0.07,0.164956819860034,0.164956819860034,6.025329996890706,6.050408457367784,116.62694006896226,117.0724360332034,0.015643805180369,0,0.015643805180369,90,0.55030984868222,10.203535117751542,28.610000000000003,-80.59999983953546,17.667330044060733,0,0,0,85,90,2680.3983976903155,827.2371658212974,0.629220938903977,0.007196962405652,9.792176795397783,NaN,134.4189887870425,NaN,340.20252542372884,12.961609632657455,0.254697986156031,0.925837455516685,0.468645028333023,0.337144588382818,0.120047838800844,1.202992539692062,NaN,NaN,NaN,NaN,NaN,NaN,NaN,NaN,1.966104440808018,90,14.998927780670897,1013.2306533294227,0.001224980631811,340.38825023508656,0.019183085667494,9.053791215144021e5,10.16,81.07319665559963,0.002,0.040545,0
0.072,0.177241077217925,0.177241077217925,6.259099100639837,6.285068878439591,117.14215902584668,117.58962304280237,0.016764861998922,0,0.016764861998922,90,0.570761995142884,10.24861093571258,28.610000000000003,-80.59999982803635,17.033073178615226,0,0,0,85,90,2680.0646770789895,826.9034452099711,0.629097451989095,0.007196902167509,9.79217675763617,NaN,134.4114508664684,NaN,341.5631694915254,13.01507022524007,0.271572419888931,0.922724695051715,0.465513184028542,0.337160355912452,0.120051155110722,1.199540627145197,NaN,NaN,NaN,NaN,NaN,NaN,NaN,NaN,1.962281921057703,90,14.998847932998103,1013.2292125918976,0.001224979229429,340.38820184739683,0.019836855892616,9.362339464913042e5,10.16,81.07319665559963,0.002,0.0413708,0
0.074,0.189993903215122,0.189993903215122,6.493898640652834,6.520763783645704,117.65739134934967,118.10682347007823,0.017926913261499,0,0.017926913261499,90,0.591304293095123,10.293687923101213,28.610000000000003,-80.59999981611674,16.436952487625707,0,0,0,85,90,2679.7309564676634,826.5697245986449,0.628973934610239,0.007196841929366,9.792176718434188,NaN,134.40391106842267,NaN,342.92381355932207,13.068544135587345,0.288756093607984,0.919719999153668,0.462489287440414,0.337176101508543,0.120054610204711,1.194748038532006,NaN,NaN,NaN,NaN,NaN,NaN,NaN,NaN,1.958459401307388,90,14.99876503962912,1013.2277168991235,0.001224977773555,340.3881516140152,0.020495816592038,9.67333639208644e5,10.16,81.07319665559963,0.002,0.0684841,0
0.076,0.203217358796194,0.203217358796194,6.729728703052276,6.757493248444752,118.1726792897301,118.62407972667896,0.019130139277384,0,0.019130139277384,90,0.611936750073686,10.338769776336123,28.610000000000003,-80.59999980377478,15.87577414864652,0,0,0,85,90,2679.3972358563374,826.2360039873188,0.628850386756028,0.007196781691222,9.792176677785493,NaN,134.39636939220372,NaN,344.2844576271186,13.122031368706864,0.30613538310923,0.916817466155046,0.459567430138902,0.337191830292816,0.120058205723328,1.188413231673714,NaN,NaN,NaN,NaN,NaN,NaN,NaN,NaN,1.954636881557074,90,14.99867908716783,1013.2261660093862,0.001224976263952,340.3880995268237,0.021159781031272,9.986693816466104e5,10.16,81.07319665559963,0.002,0.0690461,0
0.078,0.216913505108701,0.216913505108701,6.966589386471441,6.995257362249246,118.68801038174747,119.14137929974888,0.020374720373624,0,0.020374720373624,90,0.632659374707866,10.38385540485008,28.610000000000003,-80.59999979100863,15.346677547001818,0,0,0,85,90,2679.0635152450113,825.9022833759926,0.628726808415073,0.007196721453077,9.792176635683758,NaN,134.38882583710972,NaN,345.6451016949153,13.175531929608837,0.323743867037596,0.914011572407603,0.456742081575659,0.337207547517254,0.12006194331469,1.180938935280952,NaN,NaN,NaN,NaN,NaN,NaN,NaN,NaN,1.950814361806759,90,14.998590062216806,1013.2245596809476,0.001224974700385,340.38804557770334,0.021828583006633,1.030233324727451e6,10.16,81.07319665559963,0.002,0.0697744,0
0.08,0.231084403473234,0.231084403473234,7.204480765683686,7.234056191701624,119.2033732911519,119.6587108117431,0.021660836892402,0,0.021660836892402,90,0.653472173539484,10.428943817024704,28.610000000000003,-80.59999977781644,14.84709485767741,0,0,0,85,90,2678.729794633685,825.5685627646664,0.628603199575979,0.007196661214933,9.792176592122642,NaN,134.38128040243853,NaN,347.00574576271185,13.229045823306107,0.341612066143739,0.911297153292351,0.454008070155884,0.337223258502522,0.120065824633944,1.172642953993651,NaN,NaN,NaN,NaN,NaN,NaN,NaN,NaN,1.946991842056445,90,14.99849795137743,1013.2228976720493,0.001224973082619,340.3879897585347,0.022502074082904,1.06201845794022e6,10.16,81.07319665559963,0.002,0.0703174,0
0.082,0.245732115338016,0.245732115338016,7.443402893910443,7.473889782814826,119.71875777250837,120.17606397809071,0.022988669187068,0,0.022988669187068,90,0.674375151224812,10.474034116500583,28.610000000000003,-80.59999976419635,14.374715991708747,0,0,0,85,90,2678.396074022359,825.2348421533402,0.628479560227345,0.007196600976788,9.792176547095808,NaN,134.37373308748744,NaN,348.3663898305085,13.282573054814154,0.359767558573678,0.908669382452705,0.451360562516888,0.337238968592572,0.120069851343245,1.163775006602858,NaN,NaN,NaN,NaN,NaN,NaN,NaN,NaN,1.94316932230613,90,14.998402741250288,1013.221179740918,0.001224971410419,340.38793206119766,0.023180121331949,1.094018502609056e6,10.16,81.07319665559963,0.002,0.0708276,0
0.084,0.260858702237869,0.260858702237869,7.683355804841613,7.714758162854805,120.23415451644921,120.69342945386377,0.024358397618548,0,0.024358397618548,90,0.695368310711335,10.51912548881358,28.610000000000003,-80.59999975014652,13.927458226997306,0,0,0,85,90,2678.0623534110327,824.9011215420139,0.628355890357768,0.007196540738642,9.792176500596922,NaN,134.36618389155356,NaN,349.7270338983051,13.336113629151082,0.37823539232151,0.906123750670465,0.448795042438834,0.337254683119895,0.120074025111736,1.154531126183596,NaN,NaN,NaN,NaN,NaN,NaN,NaN,NaN,1.939346802555816,90,14.998304418435453,1013.2194056457702,0.001224969683548,340.3878724775719,0.023862605399015,1.126227820627197e6,10.16,81.07319665559963,0.002,0.07139,0
0.086,0.276466225756933,0.276466225756933,7.924339514375748,7.956661341966373,120.7495550214215,121.2107987050348,0.025770202552084,0,0.025770202552084,90,0.716451653389996,10.564217190174192,28.610000000000003,-80.5999997356651,13.503439852489702,0,0,0,85,90,2677.7286327997062,824.5674009306878,0.628232189955835,0.007196480500496,9.792176452619643,NaN,134.3586328139337,NaN,351.0876779661017,13.389667551337652,0.397038431537014,0.903656044985185,0.446307289990481,0.337270407379178,0.120078347615526,1.145064907003007,NaN,NaN,NaN,NaN,NaN,NaN,NaN,NaN,1.935524282805501,90,14.9982029695326,1013.2175751448167,0.001224967901772,340.3878109995368,0.024549418844108,1.158641336174138e6,10.16,81.07319665559963,0.001,0.0725437,0
0.087,0.284450982998744,0.284450982998744,8.04521791910877,8.078000980025312,121.00725422147153,121.46948227416408,0.0264919400717,0,0.0264919400717,90,0.727027143469234,10.586762948778269,28.610000000000003,-80.59999972826196,13.299606664046488,0,0,0,85,90,2677.561772494043,824.4005406250247,0.628170328301668,0.007196450381423,9.792176428074631,NaN,134.35485656927165,NaN,351.768,13.416449519444244,0.406572273930607,0.902450173887721,0.445091333921287,0.33727827479759,0.120080565168843,1.140287024492729,NaN,NaN,NaN,NaN,NaN,NaN,NaN,NaN,1.933613022930344,90,14.998151068610525,1013.216638666603,0.001224966990221,340.38777954757796,0.024894418411081,1.174923218808918e6,10.16,81.07319665559963,0.0015,0.0733718,0
0.0885,0.296654936472232,0.296654936472232,8.22671566414372,8.260191290125185,120.98972866611493,121.45188977403316,0.027594390320756,0,0.027594390320756,90,0.742906138615311,10.58522966136257,28.610000000000003,-80.59999971695369,13.003970618270701,0,0,0,85,90,2677.297354558007,824.136122688989,0.628072282569597,0.007196402652737,9.792176390559872,NaN,134.348871516912,NaN,351.70065,13.415205633588359,0.421020812131148,0.900677959673869,0.443303938360474,0.337290064598082,0.120083956715314,1.133111083158547,NaN,NaN,NaN,NaN,NaN,NaN,NaN,NaN,1.930746133117608,90,14.998071742912941,1013.2152073473777,0.001224965596999,340.3877314762052,0.025413006257196,1.199397349648686e6,10.16,81.07319665559963,0.002,0.0746488,0
0.0905,0.313350331632102,0.313350331632102,8.468671673112652,8.503070611229049,120.9662608784171,121.42833234319883,0.029101371690233,0,0.029101371690233,90,0.764074546472069,10.583176495980977,28.610000000000003,-80.599999701496,12.628132290046773,0,0,0,85,90,2676.94479730996,823.7835654409413,0.627941525083449,0.007196339014488,9.792176339238493,NaN,134.34088960787363,NaN,351.61084999999997,13.413546738616265,0.440540800637914,0.898384104729444,0.440989768913038,0.337305742256459,0.120088593559948,1.123593424516092,NaN,NaN,NaN,NaN,NaN,NaN,NaN,NaN,1.926923613367293,90,14.997963222844419,1013.2132492573115,0.001224963691027,340.3876657130437,0.026105342799421,1.232071217662352e6,10.16,81.07319665559963,0.002,0.0770047,0
0.0925,0.330529591795637,0.330529591795637,8.710580628074844,8.745902749878123,120.94267388858475,121.4046552548972,0.030650685762208,0,0.030650685762208,90,0.785238837636664,10.581112901763944,28.610000000000003,-80.59999968560409,12.271791396424769,0,0,0,85,90,2676.592240061912,823.4310081928937,0.627810733478217,0.007196275376239,9.792176286429724,NaN,134.3329055961019,NaN,351.52104999999995,13.411887408630498,0.460364456637419,0.896165249263181,0.438750510847367,0.337321376905436,0.120093361510378,1.114191882720895,NaN,NaN,NaN,NaN,NaN,NaN,NaN,NaN,1.923101093616979,90,14.997851557653348,1013.2112344179892,0.001224961729814,340.38759804393794,0.026798609375221,1.264788831684097e6,10.16,81.07319665559963,0.002,0.0777087,0
0.0945,0.34819262261342,0.34819262261342,8.952442286170257,8.98868745811489,120.91896332748797,121.38085412330895,0.032242324282176,0,0.032242324282176,90,0.806398990861596,10.579038496462138,28.610000000000003,-80.59999966927805,11.933494604963307,0,0,0,85,90,2676.2396828138644,823.0784509448459,0.627679907740418,0.00719621173799,9.792176232133853,NaN,134.32491948076583,NaN,351.43125,13.410227643457171,0.480503391072232,0.894017359175084,0.436582124823757,0.337336973866525,0.120098260484802,1.104954819061232,NaN,NaN,NaN,NaN,NaN,NaN,NaN,NaN,1.919278573866664,90,14.997736747953013,1013.2091628404762,0.001224959713372,340.3875284692595,0.027492724184566,1.297546326769285e6,10.16,81.07319665559963,0.002,0.078273,0
0.0965,0.366339329241912,0.366339329241912,9.19425639629738,9.23142448014897,120.89512531160156,121.3569250500745,0.033876278952403,0,0.033876278952403,90,0.827554984178328,10.576952940311127,28.610000000000003,-80.59999965251794,11.611927082526037,0,0,0,85,90,2675.887125565817,822.7258936967983,0.627549047856559,0.007196148099739,9.792176176351168,NaN,134.31693126103394,NaN,351.34144999999995,13.40856744292232,0.500967904313224,0.891936689954226,0.434480861319206,0.337352538234285,0.120103290400735,1.095917401950508,NaN,NaN,NaN,NaN,NaN,NaN,NaN,NaN,1.91545605411635,90,14.997618794359937,1013.2070345358962,0.001224957641711,340.38745698938214,0.028187613309975,1.330340210011745e6,10.16,81.07319665559963,0.002,0.0788577,0
0.0985,0.384969616327892,0.384969616327892,9.436022700020786,9.47411355321157,120.87115638101497,121.33286456206699,0.035552541430563,0,0.035552541430563,90,0.848706794976692,10.57485593060796,28.610000000000003,-80.59999963532387,11.30589666773322,0,0,0,85,90,2675.5345683177693,822.3733364487506,0.627418153813145,0.007196084461489,9.792176119081967,NaN,134.30894093607432,NaN,351.25165,13.406906806851874,0.521767153508846,0.889919761970854,0.432443235913278,0.337368074882567,0.12010845117501,1.087104511659617,NaN,NaN,NaN,NaN,NaN,NaN,NaN,NaN,1.911633534366035,90,14.997497697493884,1013.2048495154326,0.001224955514842,340.3873836046813,0.02888320978988,1.363167316809158e6,10.16,81.07319665559963,0.002,0.0794004,0
0.1005,0.404083387994608,0.404083387994608,9.677740924358742,9.716754400267515,120.84702943073042,121.30864545075192,0.037271103328527,0,0.037271103328527,90,0.869854399373879,10.572745095972607,28.610000000000003,-80.59999961769591,11.018354794553195,0,0,0,85,90,2675.1820110697213,822.020779200703,0.627287225596667,0.007196020823238,9.792176060326542,NaN,134.30094850505466,NaN,351.16184999999996,13.40524573507167,0.542973787445184,0.887961683714084,0.430464334611823,0.337383601780228,0.120113747322033,1.078617527282369,NaN,NaN,NaN,NaN,NaN,NaN,NaN,NaN,1.908548657423262,90,14.997373457978028,1013.20260779033,0.001224953332775,340.3873083155347,0.02958005071413,1.396052991238119e6,10.16,81.07319665559963,0.002,0.0804027,0
0.1025,0.423680547699913,0.423680547699913,9.919410667852706,9.95934661560882,120.82269021040833,121.28421325856227,0.039031956199951,0,0.039031956199951,90,0.890997762246819,10.570615690115366,28.610000000000003,-80.59999959963417,10.755946047052614,0,0,0,85,90,2674.8294538216737,821.6682219526554,0.627156263193614,0.007195957184987,9.792176000085192,NaN,134.29295396714218,NaN,351.07205,13.403584227407457,0.564733303052615,0.886056511762121,0.428538174880394,0.337399148775006,0.120119188106721,1.070634560047931,NaN,NaN,NaN,NaN,NaN,NaN,NaN,NaN,1.907676708903113,90,14.997246076439978,1013.2003093719113,0.001224951095522,340.38723112232265,0.030279227040338,1.429048717361172e6,10.16,81.07319665559963,0.002,0.0818425,0
0.1045,0.443760998117784,0.443760998117784,10.161031588772445,10.201889853743058,120.79820653566,121.25963606015395,0.040835091529913,0,0.040835091529913,90,0.91213685369799,10.568473646133432,28.610000000000003,-80.59999958113872,10.50543574874903,0,0,0,85,90,2674.476896573626,821.3156647046077,0.627025266590467,0.007195893546735,9.792175938358211,NaN,134.28495732150367,NaN,350.98224999999996,13.401922283684888,0.586863410864541,0.88420657927948,0.42666713994259,0.337414679596839,0.120124759740052,1.062904796489721,NaN,NaN,NaN,NaN,NaN,NaN,NaN,NaN,1.906804760382963,90,14.99711555351223,1013.197954271591,0.001224948803093,340.3871520254284,0.030978868734827,1.462066233113831e6,10.16,81.07319665559963,0.002,0.0824295,0
0.1065,0.464324641312908,0.464324641312908,10.402603396343354,10.444383820556974,120.77357657405254,121.23491201609444,0.042680500750181,0,0.042680500750181,90,0.93327164828791,10.566318803709699,28.610000000000003,-80.59999956220965,10.266041756455255,0,0,0,85,90,2674.124339325578,820.96310745656,0.626894235773698,0.007195829908483,9.792175875145908,NaN,134.2769585673055,NaN,350.89244999999994,13.400259903729516,0.609368876381016,0.882409205477468,0.424848544864582,0.337430198477439,0.120130462135446,1.055428019190878,NaN,NaN,NaN,NaN,NaN,NaN,NaN,NaN,1.905932811862814,90,14.996981889831488,1013.1955425008555,0.0012249464555,340.3870710252379,0.031678934452539,1.495103582934019e6,10.16,81.07319665559963,0.002,0.0831289,0
0.1085,0.485371378764889,0.485371378764889,10.64412579631809,10.686828218654323,120.74879868148497,121.2100394760026,0.044568175241339,0,0.044568175241339,90,0.954402120273273,10.564151019003974,28.610000000000003,-80.59999954284704,10.037048257568388,0,0,0,85,90,2673.771782077531,820.6105502085123,0.626763170729773,0.00719576627023,9.792175810448578,NaN,134.2689577037135,NaN,350.80264999999997,13.39859708736681,0.632253957027853,0.880661887913064,0.423079883255093,0.33744570945234,0.120136295205631,1.048201734391246,NaN,NaN,NaN,NaN,NaN,NaN,NaN,NaN,1.905060863342665,90,14.996845086038036,1013.1930740712595,0.001224944052753,340.38698812213903,0.032379386323683,1.528158975286451e6,10.16,81.07319665559963,0.002,0.0836622,0
0.1105,0.50690111136166,0.50690111136166,10.885598491331486,10.929222747689506,120.72387138093723,121.18501695721638,0.046498106332204,0,0.046498106332204,90,0.975528243637999,10.561970162793743,28.610000000000003,-80.599999523051,9.817798962175543,0,0,0,85,90,2673.419224829483,820.2579929604648,0.626632071445152,0.007195702631977,9.792175744266533,NaN,134.26095472989329,NaN,350.71285,13.39693383442213,0.655522459519897,0.878962287862257,0.421358812628546,0.337461216371075,0.120142258862636,1.041221743599834,NaN,NaN,NaN,NaN,NaN,NaN,NaN,NaN,1.904188914822515,90,14.996705142776136,1013.1905489944271,0.001224941594864,340.3869033165223,0.033080189590634,1.561230765524939e6,10.16,81.07319665559963,0.002,0.084358,0
0.1125,0.528913739393576,0.528913739393576,11.1270211812158,11.17156710466439,120.69879334398243,121.1598431262345,0.048470285299313,0,0.048470285299313,90,0.996649992120811,10.559776118856714,28.610000000000003,-80.59999950282159,9.60769110729509,0,0,0,85,90,2673.066667581436,819.9054357124171,0.626500937906285,0.007195638993724,9.792175676600074,NaN,134.25294964500972,NaN,350.62305000000003,13.39527014472076,0.679177789763973,0.877308217080792,0.419683141156061,0.337476722906934,0.120148353017796,1.034482593007815,NaN,NaN,NaN,NaN,NaN,NaN,NaN,NaN,1.903316966302366,90,14.996562060693918,1013.1879672820527,0.001224939081844,340.38681660878046,0.03378131228907,1.594317440843181e6,10.16,81.07319665559963,0.002,0.0853819,0
0.1145,0.551409162548086,0.551409162548086,11.368393563281415,11.41386098419293,120.67356337465677,121.13451678252478,0.050484703366455,0,0.050484703366455,90,1.0177673392398,10.557568782559612,28.610000000000003,-80.59999948215895,9.406170163755895,0,0,0,85,90,2672.714110333388,819.5528784643694,0.626369770099618,0.00719557535547,9.792175607449511,NaN,134.24494244822756,NaN,350.53324999999995,13.39360601808787,0.703222996398449,0.875697625807711,0.418050815659689,0.33749223256627,0.120154577581752,1.027977926577803,NaN,NaN,NaN,NaN,NaN,NaN,NaN,NaN,1.902445017782217,90,14.996415840443433,1013.1853289459012,0.001224936513705,340.38672799930873,0.034482724967251,1.627417607025345e6,10.16,81.07319665559963,0.002,0.085982,0
0.1165,0.574387279904951,0.574387279904951,11.609715302486906,11.656104048542371,120.64809015530943,121.10894625961785,0.052541351704252,0,0.052541351704252,90,1.03888025568264,10.55534016464321,28.610000000000003,-80.5999994610631,9.212725175688064,0,0,0,85,90,2672.3615530853403,819.2003212163218,0.626238568011588,0.007195511717215,9.792175536815154,NaN,134.23693313871084,NaN,350.44345,13.39194145434856,0.727902884061346,0.874419397248228,0.416750716089162,0.337507748695421,0.120160932463645,1.022040663298778,NaN,NaN,NaN,NaN,NaN,NaN,NaN,NaN,1.901573069262067,90,14.996266482680596,1013.1826339978089,0.001224933890456,340.38663748850445,0.035184400350685,1.660529972619464e6,10.16,81.07319665559963,0.002,0.0878913,0
0.1185,0.597847989360845,0.597847989360845,11.850985473956975,11.898295368009581,120.62205187945825,121.08280852178301,0.054640221379821,0,0.054640221379821,90,1.059988660533227,10.553062110688472,28.610000000000003,-80.59999943953417,9.026885014377058,0,0,0,85,90,2672.0089958372923,818.8477639682741,0.626107331628625,0.00719544807896,9.79217546469732,NaN,134.22892171562327,NaN,350.35365,13.390276453327806,0.754080348866867,0.874439328866313,0.416748636857277,0.337523274453151,0.120167417555884,1.017785375246127,NaN,NaN,NaN,NaN,NaN,NaN,NaN,NaN,1.900701120741918,90,14.996113988069169,1013.1798824497508,0.001224931212111,340.38654507676995,0.035886311498353,1.693653261920261e6,10.16,81.07319665559963,0.002,0.089551,0
0.1205,0.621791186964932,0.621791186964932,12.092203391502066,12.14043425259218,120.59583606834586,121.05649257053109,0.056781303298643,0,0.056781303298643,90,1.081092493757753,10.550768524411,28.610000000000003,-80.59999941757228,8.848214015340387,0,0,0,85,90,2671.6564385892448,818.4952067202264,0.625976060937153,0.007195384440705,9.792175391096327,NaN,134.22090817812818,NaN,350.26385,13.388611014850497,0.780715512494373,0.874459361538068,0.416746515910733,0.337538812871831,0.120174032755504,1.013684024535062,NaN,NaN,NaN,NaN,NaN,NaN,NaN,NaN,1.899829172221769,90,14.995958357284735,1013.1770743139188,0.001224928478681,340.3864507645145,0.036588434017841,1.726786319512266e6,10.16,81.07319665559963,0.002,0.0901219,0
0.1225,0.646216767853652,0.646216767853652,12.33336869909739,12.38252034380675,120.56944178071242,121.02999746100683,0.058964588286345,0,0.058964588286345,90,1.102191724208087,10.548459323461232,28.610000000000003,-80.59999939517748,8.67630867011732,0,0,0,85,90,2671.303881341197,818.1426494721788,0.625844755923587,0.007195320802449,9.792175316012495,NaN,134.21289252538836,NaN,350.17404999999997,13.386945138741437,0.807810710445937,0.874479498118286,0.416744353280021,0.337554366870865,0.1201807779674,1.009732028294204,NaN,NaN,NaN,NaN,NaN,NaN,NaN,NaN,1.89895722370162,90,14.99579959100896,1013.1742096026111,0.001224925690177,340.38635455215143,0.037290746160852,1.759928114776925e6,10.16,81.07319665559963,0.002,0.0906551,0
0.1245,0.671124626449563,0.671124626449563,12.574481038911275,12.624553281440768,120.54286814975374,121.00332232309495,0.061190067106097,0,0.061190067106097,90,1.123286320578012,10.546134432003626,28.610000000000003,-80.59999937234988,8.51079495753025,0,0,0,85,90,2670.9513240931497,817.7900922241311,0.625713416574336,0.007195257164193,9.792175239446149,NaN,134.20487475656614,NaN,350.08425,13.385278824825322,0.835368077263823,0.874499741333971,0.416742148995891,0.337569939242412,0.120187653095668,1.005924589717694,NaN,NaN,NaN,NaN,NaN,NaN,NaN,NaN,1.89808527518147,90,14.99563768992806,1013.1712883282106,0.001224922846612,340.3862564400964,0.03799322770299,1.793077689023304e6,10.16,81.07319665559963,0.002,0.0911555,0
0.1265,0.696514656457872,0.696514656457872,12.815540051447247,12.866532703687216,120.51611437642087,120.97646635469427,0.06345773045831,0,0.06345773045831,90,1.144376251415663,10.543793780130457,28.610000000000003,-80.59999934908959,8.35132571945011,0,0,0,85,90,2670.598766845102,817.4375349760835,0.625582042875802,0.007195193525937,9.79217516139762,NaN,134.19685487082356,NaN,349.99445000000003,13.383612072926748,0.863389564625269,0.874520093791018,0.416739903089347,0.33758553265807,0.1201946580436,1.002256788804113,NaN,NaN,NaN,NaN,NaN,NaN,NaN,NaN,1.897213326661321,90,14.995472654733021,1013.1683105031838,0.001224919947997,340.38615642876823,0.038695859806379,1.826234149004033e6,10.16,81.07319665559963,0.002,0.0921307,0
0.1285,0.722386750863237,0.722386750863237,13.056545375673453,13.108458247267393,120.48917972344013,120.94942881571487,0.065767568980355,0,0.065767568980355,90,1.165461485134846,10.541437303338638,28.610000000000003,-80.59999932539668,8.197578309707513,0,0,0,85,90,2670.246209597054,817.0849777280358,0.625450634814378,0.007195129887679,9.79217508186723,NaN,134.1888328673221,NaN,349.90465,13.381944882870235,0.891876957490697,0.874540557980512,0.416737615591654,0.337601149675169,0.120201792713689,0.998723653693897,NaN,NaN,NaN,NaN,NaN,NaN,NaN,NaN,1.896341378141171,90,14.99530448611938,1013.1652761400818,0.001224916994345,340.38605451858837,0.039398624896792,1.859396661116432e6,10.16,81.07319665559963,0.002,0.0939074,0
0.1305,0.748740801926816,0.748740801926816,13.297496649140763,13.350329547543131,120.46206350996559,120.92220902271005,0.068119573246305,0,0.068119573246305,90,1.18654199002537,10.539064942061867,28.610000000000003,-80.59999930127127,8.049252483813344,0,0,0,85,90,2669.893652349007,816.7324204799881,0.625319192376454,0.007195066249422,9.792175000855318,NaN,134.18080874522272,NaN,349.81485,13.380277254480179,0.92083188854545,0.874561136284653,0.416735286534331,0.337616792742699,0.120209057007623,0.995320216398259,NaN,NaN,NaN,NaN,NaN,NaN,NaN,NaN,1.895469429621022,90,14.995133184787448,1013.1621852515404,0.001224913985667,340.3859507099812,0.040101506553562,1.892564446206278e6,10.16,81.07319665559963,0.002,0.0946332,0
0.1325,0.775576701183543,0.775576701183543,13.538393508090747,13.592146238619527,120.4347651067868,120.89480634406593,0.070513733766695,0,0.070513733766695,90,1.207617734262497,10.536676641251363,28.610000000000003,-80.59999927671345,7.906068501417216,0,0,0,85,90,2669.541095100959,816.3798632319406,0.625187715548407,0.007195002611164,9.79217491836221,NaN,134.1727825036862,NaN,349.72505,13.378609187580917,0.950255851141837,0.874581830982338,0.416732915949156,0.337632464206893,0.120216450826289,0.992041555968735,NaN,NaN,NaN,NaN,NaN,NaN,NaN,NaN,1.894597481100873,90,14.994958751442311,1013.1590378502812,0.001224910921976,340.385845003374,0.040804489410732,1.925736774902804e6,10.16,81.07319665559963,0.002,0.0952872,0
0.1345,0.802894339439608,0.802894339439608,13.779235587554565,13.833907953439157,120.40728393202527,120.8672201956813,0.072950040988306,0,0.072950040988306,90,1.228688685915591,10.534272349999354,28.610000000000003,-80.5999992517233,7.767765417082345,0,0,0,85,90,2669.188537852911,816.0273059838928,0.625056204316612,0.007194938972906,9.792174834388247,NaN,134.16475414187252,NaN,349.63525000000004,13.37694068199666,0.980150210920172,0.874602644254413,0.416730503868162,0.337648166316477,0.120223974069774,0.988882831562986,NaN,NaN,NaN,NaN,NaN,NaN,NaN,NaN,1.893725532580723,90,14.99478118679366,1013.1558339491104,0.001224907803284,340.38573739919696,0.041507559068167,1.958912963422956e6,10.16,81.07319665559963,0.002,0.0965291,0
0.1365,0.83069360677013,0.83069360677013,14.02002252144369,14.075614323868608,120.37961944726388,120.8394500370824,0.075428485293957,0,0.075428485293957,90,1.249754812956056,10.531852021200447,28.610000000000003,-80.59999922630094,7.634099538082571,0,0,0,85,90,2668.8359806048634,815.6747487358452,0.624924658667433,0.007194875334647,9.792174748933766,NaN,134.15672365894153,NaN,349.54545,13.37527173755153,1.010516216263528,0.874623578188615,0.416728050323642,0.337663901227614,0.120231626637359,0.985839307387816,NaN,NaN,NaN,NaN,NaN,NaN,NaN,NaN,1.892853584060574,90,14.994600491556014,1013.1525735609202,0.001224904629603,340.38562789788296,0.042210702011448,1.992092369791034e6,10.16,81.07319665559963,0.002,0.0971473,0
0.1385,0.858974392517,0.858974392517,14.260753942633293,14.317264980778106,120.35177115405718,120.8114953679198,0.077949057002317,0,0.077949057002317,90,1.270816083264631,10.529415611246312,28.610000000000003,-80.59999920044646,7.504843030615448,0,0,0,85,90,2668.483423356816,815.3221914877975,0.62479307858723,0.007194811696388,9.792174661999107,NaN,134.14869105405245,NaN,349.45565000000005,13.373602354069567,1.041355007720575,0.874644634784228,0.416725555348144,0.337679671008558,0.120239408427526,0.982906371119715,NaN,NaN,NaN,NaN,NaN,NaN,NaN,NaN,1.891981635540425,90,14.994416666448615,1013.1492566986896,0.001224901400946,340.3855164998679,0.042913905539585,2.025274390426753e6,10.16,81.07319665559963,0.002,0.0979103,0
0.1405,0.88773658528689,0.88773658528689,14.501429483038965,14.558859554114871,120.3237385907821,120.78335572480708,0.080511746367732,0,0.080511746367732,90,1.291872464638102,10.526963079750171,28.610000000000003,-80.59999917415998,7.379782658141109,0,0,0,85,90,2668.1308661087683,814.9696342397499,0.624661464062353,0.007194748058128,9.792174573584614,NaN,134.14065632636417,NaN,349.36585,13.371932531374702,1.072667626513442,0.874665815956455,0.416723018974475,0.337695477644027,0.120247319337954,0.980079547097381,NaN,NaN,NaN,NaN,NaN,NaN,NaN,NaN,1.891109687020276,90,14.994229712195647,1013.1458833754824,0.001224898117325,340.3854032055906,0.043617157699658,2.058458457060699e6,10.16,81.07319665559963,0.002,0.0987823,0
0.1425,0.9169800729494,0.9169800729494,14.742048773687483,14.800397672970853,120.29552132978796,120.75503067846003,0.083116543580065,0,0.083116543580065,90,1.312923924795497,10.524494389297432,28.610000000000003,-80.59999914744157,7.258718637552993,0,0,0,85,90,2667.7783088607207,814.6170769917022,0.624529815079147,0.007194684419868,9.792174483690626,NaN,134.13261947503503,NaN,349.27605,13.370262269290778,1.104455022232667,0.874687123540546,0.416720441235696,0.33771132303933,0.12025535926552,0.977354505334225,NaN,NaN,NaN,NaN,NaN,NaN,NaN,NaN,1.890237738500126,90,14.994039629525844,1013.1424536044501,0.001224894778753,340.3852880154926,0.044320447227646,2.091644033941305e6,10.16,81.07319665559963,0.002,0.0995358,0
0.1445,0.946704742635352,0.946704742635352,14.982611444782119,15.041878965645296,120.26711897481606,120.72651983110629,0.085763438764542,0,0.085763438764542,90,1.333970431383793,10.522009505219952,28.610000000000003,-80.59999912029134,7.141463600617906,0,0,0,85,90,2667.425751612673,814.2645197436545,0.624398131623948,0.007194620781607,9.792174392317493,NaN,134.124580499223,NaN,349.18625,13.368591567641543,1.136718059808451,0.874708559295675,0.416717822165128,0.337727209024247,0.1202635281063,0.974727067200101,NaN,NaN,NaN,NaN,NaN,NaN,NaN,NaN,1.889365789979977,90,14.993846419172883,1013.1389673988302,0.001224891385242,340.3851709300187,0.045023763494747,2.124830615301795e6,10.16,81.07319665559963,0.0025,0.1007642,0
0.147,0.984537068815589,0.984537068815589,15.283234597781284,15.34365010219399,120.23135518586801,120.69061943029453,0.089131242870007,0,0.089131242870007,90,1.360271549264639,10.518880579122262,28.610000000000003,-80.59999908574648,6.999984240327468,0,0,0,85,90,2666.9850550526135,813.823823183595,0.624233478807883,0.007194541233781,9.792174276021568,NaN,134.11452879062034,NaN,349.074,13.366502572172598,1.177716919476363,0.874735536793161,0.416714490255266,0.33774712625603,0.120273920281864,0.971573908762149,NaN,NaN,NaN,NaN,NaN,NaN,NaN,NaN,1.88827585432979,90,14.993600509052726,1013.134530300974,0.001224887066117,340.38502190848595,0.045902931183782,2.166314528683804e6,10.16,81.07319665559963,0.002,0.1013714,0
0.149,1.015343979338099,1.015343979338099,15.523665217475155,15.584998859129577,120.28080489839098,120.66200492122172,0.091872821858887,0,0.091872821858887,90,1.381306502852366,9.58370516053888,28.610000000000003,-80.59999905762504,6.890673815537214,0,0,0,85,90,2666.635311352681,813.4740794836628,0.624102769383432,0.007194478103378,9.792174181321652,149.3683726683008,134.1065492324799,1.502147975966624,348.97572881355933,13.36449236430086,1.211052454457519,0.874757266695992,0.416711778348881,0.337763109670982,0.120282378676128,0.969151633537027,3.818499674212381,5.73643136033256,2.81098946663101e-4,0,0,0,0,0,1.887403905809641,90,14.993400264134323,1013.1309171666404,0.001224883549041,340.3849005600654,0.046606262052703,2.199501204769332e6,10.16,81.07319665559963,0.003,0.105997,0
0.152,1.06245617061603,1.06245617061603,15.884439662675664,15.946896522891329,120.23552823099112,120.6133314283083,0.096059807292897,0,0.096059807292897,89.99999999998326,1.409994792408746,9.539049703690528,28.610000000000003,-80.59999901467752,6.751838038404368,0,0.203408276320765,-9.25563303539344e-7,84.99969636575216,89.99999997396475,2666.110695802783,812.9494639337644,0.623906641553275,0.007194383407773,9.792174036499578,149.45194154568696,134.094575969888,1.511551729901473,348.8283220338983,13.361476067258595,1.262718464632182,0.87479023899341,0.416707617098819,0.337787264343582,0.12029535755101,0.966098725332054,3.734107962183149,5.644249451205745,-2.068943113586435e-4,0,0,0,0,1.387013362454463e-4,1.8945928500512,90,14.993094034890987,1013.1253916961227,0.001224878170462,340.38471498514394,0.047665303540573,2.249471614244873e6,10.16,81.07319665559963,0.0045,0.1067102,0
0.1565,1.135153303227023,1.135153303227023,16.425345587201505,16.489465944715498,120.16690786125972,120.53931790261002,0.102501123942153,0,0.102501123942153,89.99999999989669,1.45275926530594,9.467915055068898,28.610000000000003,-80.59999894860645,6.574202241379732,0,0.520262098576007,-1.105979580246129e-5,84.99807345386387,89.9999998292897,2665.3237724779356,812.162540608917,0.623612306408382,0.007194241364364,9.792173813029843,149.55952492884057,134.07660723838757,1.52390922150128,348.6072118644068,13.356949403522988,1.343063724649222,0.874840384349535,0.416701186136123,0.337823782588759,0.120315415624653,0.962232775859422,3.626589147169695,5.525810346157222,1.506171569900639e-4,0,0,0,0,8.496760731600706e-4,1.911748916679876,90,14.992621503529051,1013.1168655407462,0.001224869870947,340.3844286311386,0.049257223183932,2.324584497320246e6,10.16,81.07319665559963,0.00675,0.1074035,0
0.16325,1.248761144841611,1.248761144841611,17.23611879834369,17.30268854817326,120.0617423034096,120.42662706213014,0.112522162408744,0,0.112522162408744,89.9999999984484,1.516324425863188,9.367525854303242,28.610000000000003,-80.5999988458168,6.323859848570367,0,1.022306468157733,-1.789032686603625e-5,84.99288538530884,89.99999869550379,2664.1433874906647,810.9821556216459,0.623170480740023,0.007194028299246,9.792173463801308,149.71232623319423,134.04963423790926,1.541603542843008,348.2755466101695,13.350154412313838,1.46810086594168,0.874916910786173,0.416691148804994,0.337879040075261,0.120346721905919,0.956857100479681,3.475916362856494,5.355460907768041,1.276579330923581e-4,0,0,0,0,0.002984518620095,1.93748301662289,90,14.991883052558535,1013.1035412447967,0.001224856900781,340.38398112985044,0.051643892029847,2.437193945047435e6,10.16,81.07319665559963,0.01,0.1084624,0
0.17325,1.427122764939028,1.427122764939028,18.43593717741387,18.506044507664367,119.90092653799539,120.25600725009356,0.128151481247706,0,0.128151481247706,89.99999998437865,1.609317777849852,9.2344515302636,28.610000000000003,-80.59999868550086,5.982726307085166,0,1.825142972442612,-4.892334953620878e-5,84.97870684360505,89.99999546825093,2662.3946689910035,809.2334371219849,0.622515210847174,0.00719371264721,9.792172915520814,149.92280266563947,134.00963027415543,1.566257125146067,347.7841906779661,13.340076724011466,1.663239003040415,0.875033261727749,0.416675419293206,0.337962060423517,0.120395782011026,0.949686125319877,3.272210300074725,5.116533199643747,2.46624152845161e-4,0,0,0,0,0.008333604388802,1.975607609131058,90,14.990723702027879,1013.0826224157929,0.001224836537792,340.3832785634289,0.055176779607839,2.603878685174492e6,10.16,81.07319665559963,0.01,0.1091392,0
